__time,amount,coa.groupHead,coa.groupHeadName,coa.id,coa.majorHead,coa.majorHeadName,coa.minorHead,coa.minorHeadName,coa.objectHead,coa.objectHeadName,coa.subHead,coa.subHeadName,coa.subMajorHead,coa.subMajorHeadName,department.code,department.id,department.name,eventId,eventTime,eventType,expenditure.code,expenditure.id,expenditure.name,expenditure.type,fromBillingPeriod,government.id,government.name,id,project.code,project.departmentId,project.expenditureId,project.id,project.name,referenceId,tenantId,toBillingPeriod,version,departmentEntity.code,departmentEntity.name,departmentEntity.hierarchyLevel,departmentEntity.ancestry[0].code,departmentEntity.ancestry[0].name,departmentEntity.ancestry[0].hierarchyLevel,departmentEntity.ancestry[1].code,departmentEntity.ancestry[1].name,departmentEntity.ancestry[1].hierarchyLevel,departmentEntity.ancestry[2].code,departmentEntity.ancestry[2].name,departmentEntity.ancestry[2].hierarchyLevel,departmentEntity.ancestry[3].code,departmentEntity.ancestry[3].name,departmentEntity.ancestry[3].hierarchyLevel,departmentEntity.ancestry[4].code,departmentEntity.ancestry[4].name,departmentEntity.ancestry[4].hierarchyLevel,departmentEntity.ancestry[5].code,departmentEntity.ancestry[5].name,departmentEntity.ancestry[5].hierarchyLevel,departmentEntity.ancestry[6].code,departmentEntity.ancestry[6].name,departmentEntity.ancestry[6].hierarchyLevel,Total_Receipt,Total_Payment,Total_Bill,Total_Demand,Total_Expenditure,Total_Revenue,Fiscal_Position,Cash_Position
1629819812774,10234.5,78,groupHeadName,50cc5634-6cc3-456b-ae33-e40741128cde,8243,majorHeadName82,373,minorHeadName347,90,objectHeadName,56,subHeadName,12,subMajorHeadName,dept02,3d9ef18a-361a-40cf-b142-dd6f998e1ad3,departmentName-2,bd01d6f3-87aa-4f0e-88de-bf02a824b544,1629286294000,Bill,123,a4c21fc1-28df-494b-8983-baf3c6b027d7,Exp-2,NON_SCHEME,1622907239000,pb,Punjab,b2f79fb2-cc2d-4fa0-9aa9-0060602edb56,PR3,3d9ef18a-361a-40cf-b142-dd6f998e1ad3,a4c21fc1-28df-494b-8983-baf3c6b027d7,3d9ef18a-361a-40cf-b142-dd6f998e1ac5,Project3,013e9c56-8207-4dac-9f4d-f1e20bd824e7,pb,1628177643000,0.0.2,,,,,,,,,,,,,,,,,,,,,,,,,11970,0,40938,0,0,0,-40938,11970
1629886490844,10234.5,78,groupHeadName,50cc5634-6cc3-456b-ae33-e40741128cde,8243,majorHeadName82,373,minorHeadName347,90,objectHeadName,56,subHeadName,12,subMajorHeadName,dept02,3d9ef18a-361a-40cf-b142-dd6f998e1ad3,departmentName-2,2a59c0f6-3031-45b8-a4a6-1c10345a7657,1629286294000,Bill,123,a4c21fc1-28df-494b-8983-baf3c6b027d7,Exp-2,NON_SCHEME,1622907239000,pb,Punjab,51edb30b-43f2-464f-8af3-d1f1c64fc137,PR3,3d9ef18a-361a-40cf-b142-dd6f998e1ad3,a4c21fc1-28df-494b-8983-baf3c6b027d7,3d9ef18a-361a-40cf-b142-dd6f998e1ac5,Project3,013e9c56-8207-4dac-9f4d-f1e20bd824e7,pb,1628177643000,0.0.2,,,,,,,,,,,,,,,,,,,,,,,,,11970,0,40938,0,0,0,-40938,11970
1629894406962,10234.5,78,groupHeadName,50cc5634-6cc3-456b-ae33-e40741128cde,8243,majorHeadName82,373,minorHeadName347,90,objectHeadName,56,subHeadName,12,subMajorHeadName,,,,9482ad83-0041-469e-9bb6-f4e53cc56e37,1629286294000,Bill,123,a4c21fc1-28df-494b-8983-baf3c6b027d7,Exp-2,NON_SCHEME,1622907239000,pb,Punjab,ea6a6b85-262a-442b-9833-ba80cff3262d,PR3,,a4c21fc1-28df-494b-8983-baf3c6b027d7,3d9ef18a-361a-40cf-b142-dd6f998e1ac5,Project3,013e9c56-8207-4dac-9f4d-f1e20bd824e7,pb,1628177643000,0.0.2,,,,,,,,,,,,,,,,,,,,,,,,,11970,0,40938,0,0,0,-40938,11970
1629976816574,-50,0,,,0,,0,,0,,0,,0,,,,,7fa42338-d30a-4f4d-a669-c28ae2309c8d,0,Receipt,123,a4c21fc1-28df-494b-8983-baf3c6b027d7,Exp-2,NON_SCHEME,1617215400000,pb,Punjab,e09fb9d5-1d91-43c2-8c58-ea075c5b4713,PR3,,a4c21fc1-28df-494b-8983-baf3c6b027d7,3d9ef18a-361a-40cf-b142-dd6f998e1ac5,Project3,167fe9a2-d4a3-47e2-a211-1a30def5622c,pb,1648751399000,0.0.2,,,,,,,,,,,,,,,,,,,,,,,,,11970,0,40938,0,0,0,-40938,11970
1629976816574,-50,0,,,0,,0,,0,,0,,0,,,,,7fa42338-d30a-4f4d-a669-c28ae2309c8d,0,Receipt,123,a4c21fc1-28df-494b-8983-baf3c6b027d7,Exp-2,NON_SCHEME,1617215400001,pb,Punjab,deade998-18fc-49fb-bd7f-94cfa1e7107c,PR3,,a4c21fc1-28df-494b-8983-baf3c6b027d7,3d9ef18a-361a-40cf-b142-dd6f998e1ac5,Project3,167fe9a2-d4a3-47e2-a211-1a30def5622c,pb,1648751399001,0.0.2,,,,,,,,,,,,,,,,,,,,,,,,,11970,0,40938,0,0,0,-40938,11970
1629976816574,0,0,,,0,,0,,0,,0,,0,,,,,7fa42338-d30a-4f4d-a669-c28ae2309c8d,0,Receipt,123,a4c21fc1-28df-494b-8983-baf3c6b027d7,Exp-2,NON_SCHEME,1617215400000,pb,Punjab,02f3edd0-b14f-48f4-94e7-7a672d7b97be,PR3,,a4c21fc1-28df-494b-8983-baf3c6b027d7,3d9ef18a-361a-40cf-b142-dd6f998e1ac5,Project3,167fe9a2-d4a3-47e2-a211-1a30def5622c,pb,1648751399000,0.0.2,,,,,,,,,,,,,,,,,,,,,,,,,11970,0,40938,0,0,0,-40938,11970
1629976816574,0,0,,,0,,0,,0,,0,,0,,,,,7fa42338-d30a-4f4d-a669-c28ae2309c8d,0,Receipt,123,a4c21fc1-28df-494b-8983-baf3c6b027d7,Exp-2,NON_SCHEME,1617215400000,pb,Punjab,0bb26ac8-1218-49e3-b186-9df9add3f15b,PR3,,a4c21fc1-28df-494b-8983-baf3c6b027d7,3d9ef18a-361a-40cf-b142-dd6f998e1ac5,Project3,167fe9a2-d4a3-47e2-a211-1a30def5622c,pb,1648751399000,0.0.2,,,,,,,,,,,,,,,,,,,,,,,,,11970,0,40938,0,0,0,-40938,11970
1629976816574,0,0,,,0,,0,,0,,0,,0,,,,,7fa42338-d30a-4f4d-a669-c28ae2309c8d,0,Receipt,123,a4c21fc1-28df-494b-8983-baf3c6b027d7,Exp-2,NON_SCHEME,1617215400000,pb,Punjab,b0423d83-2999-4430-86b2-5f0017b22f14,PR3,,a4c21fc1-28df-494b-8983-baf3c6b027d7,3d9ef18a-361a-40cf-b142-dd6f998e1ac5,Project3,167fe9a2-d4a3-47e2-a211-1a30def5622c,pb,1648751399000,0.0.2,,,,,,,,,,,,,,,,,,,,,,,,,11970,0,40938,0,0,0,-40938,11970
1629976816574,0,0,,,0,,0,,0,,0,,0,,,,,7fa42338-d30a-4f4d-a669-c28ae2309c8d,0,Receipt,123,a4c21fc1-28df-494b-8983-baf3c6b027d7,Exp-2,NON_SCHEME,1617215400000,pb,Punjab,d592d80a-6f5b-474f-8d62-0a247658fc71,PR3,,a4c21fc1-28df-494b-8983-baf3c6b027d7,3d9ef18a-361a-40cf-b142-dd6f998e1ac5,Project3,167fe9a2-d4a3-47e2-a211-1a30def5622c,pb,1648751399000,0.0.2,,,,,,,,,,,,,,,,,,,,,,,,,11970,0,40938,0,0,0,-40938,11970
1629976816574,0,0,,,0,,0,,0,,0,,0,,,,,7fa42338-d30a-4f4d-a669-c28ae2309c8d,0,Receipt,123,a4c21fc1-28df-494b-8983-baf3c6b027d7,Exp-2,NON_SCHEME,1617215400000,pb,Punjab,f708fb11-1be7-4f6e-9e00-c7b2cd8873f3,PR3,,a4c21fc1-28df-494b-8983-baf3c6b027d7,3d9ef18a-361a-40cf-b142-dd6f998e1ac5,Project3,167fe9a2-d4a3-47e2-a211-1a30def5622c,pb,1648751399000,0.0.2,,,,,,,,,,,,,,,,,,,,,,,,,11970,0,40938,0,0,0,-40938,11970
1629976816574,0,0,,,0,,0,,0,,0,,0,,,,,7fa42338-d30a-4f4d-a669-c28ae2309c8d,0,Receipt,123,a4c21fc1-28df-494b-8983-baf3c6b027d7,Exp-2,NON_SCHEME,1617215400001,pb,Punjab,29d4d3e7-dc6a-4c94-b670-a50568d1865c,PR3,,a4c21fc1-28df-494b-8983-baf3c6b027d7,3d9ef18a-361a-40cf-b142-dd6f998e1ac5,Project3,167fe9a2-d4a3-47e2-a211-1a30def5622c,pb,1648751399001,0.0.2,,,,,,,,,,,,,,,,,,,,,,,,,11970,0,40938,0,0,0,-40938,11970
1629976816574,5,0,,,0,,0,,0,,0,,0,,,,,7fa42338-d30a-4f4d-a669-c28ae2309c8d,0,Receipt,123,a4c21fc1-28df-494b-8983-baf3c6b027d7,Exp-2,NON_SCHEME,1617215400001,pb,Punjab,4e0f1711-4f2e-475a-b2eb-5f9350219e6d,PR3,,a4c21fc1-28df-494b-8983-baf3c6b027d7,3d9ef18a-361a-40cf-b142-dd6f998e1ac5,Project3,167fe9a2-d4a3-47e2-a211-1a30def5622c,pb,1648751399001,0.0.2,,,,,,,,,,,,,,,,,,,,,,,,,11970,0,40938,0,0,0,-40938,11970
1629976816574,25,0,,,0,,0,,0,,0,,0,,,,,7fa42338-d30a-4f4d-a669-c28ae2309c8d,0,Receipt,123,a4c21fc1-28df-494b-8983-baf3c6b027d7,Exp-2,NON_SCHEME,1617215400000,pb,Punjab,fc65ba2b-f820-4548-91a2-923da65e7bd4,PR3,,a4c21fc1-28df-494b-8983-baf3c6b027d7,3d9ef18a-361a-40cf-b142-dd6f998e1ac5,Project3,167fe9a2-d4a3-47e2-a211-1a30def5622c,pb,1648751399000,0.0.2,,,,,,,,,,,,,,,,,,,,,,,,,11970,0,40938,0,0,0,-40938,11970
1629976816574,25,0,,,0,,0,,0,,0,,0,,,,,7fa42338-d30a-4f4d-a669-c28ae2309c8d,0,Receipt,123,a4c21fc1-28df-494b-8983-baf3c6b027d7,Exp-2,NON_SCHEME,1617215400001,pb,Punjab,2ad34b36-0977-48b4-aea7-cae4957b94cd,PR3,,a4c21fc1-28df-494b-8983-baf3c6b027d7,3d9ef18a-361a-40cf-b142-dd6f998e1ac5,Project3,167fe9a2-d4a3-47e2-a211-1a30def5622c,pb,1648751399001,0.0.2,,,,,,,,,,,,,,,,,,,,,,,,,11970,0,40938,0,0,0,-40938,11970
1629976816574,50,0,,,0,,0,,0,,0,,0,,,,,7fa42338-d30a-4f4d-a669-c28ae2309c8d,0,Receipt,123,a4c21fc1-28df-494b-8983-baf3c6b027d7,Exp-2,NON_SCHEME,1617215400001,pb,Punjab,c46936e2-f9d4-474f-ae94-ca28f0ace7d7,PR3,,a4c21fc1-28df-494b-8983-baf3c6b027d7,3d9ef18a-361a-40cf-b142-dd6f998e1ac5,Project3,167fe9a2-d4a3-47e2-a211-1a30def5622c,pb,1648751399001,0.0.2,,,,,,,,,,,,,,,,,,,,,,,,,11970,0,40938,0,0,0,-40938,11970
1629976816574,50,0,,,0,,0,,0,,0,,0,,,,,7fa42338-d30a-4f4d-a669-c28ae2309c8d,0,Receipt,123,a4c21fc1-28df-494b-8983-baf3c6b027d7,Exp-2,NON_SCHEME,1617215400001,pb,Punjab,c4cee8d2-0182-4384-8d94-f8316b6cdf75,PR3,,a4c21fc1-28df-494b-8983-baf3c6b027d7,3d9ef18a-361a-40cf-b142-dd6f998e1ac5,Project3,167fe9a2-d4a3-47e2-a211-1a30def5622c,pb,1648751399001,0.0.2,,,,,,,,,,,,,,,,,,,,,,,,,11970,0,40938,0,0,0,-40938,11970
1629976816574,100,0,,,0,,0,,0,,0,,0,,,,,7fa42338-d30a-4f4d-a669-c28ae2309c8d,0,Receipt,123,a4c21fc1-28df-494b-8983-baf3c6b027d7,Exp-2,NON_SCHEME,1617215400001,pb,Punjab,489b69d4-ad77-41f2-b1e5-0c351c72c62a,PR3,,a4c21fc1-28df-494b-8983-baf3c6b027d7,3d9ef18a-361a-40cf-b142-dd6f998e1ac5,Project3,167fe9a2-d4a3-47e2-a211-1a30def5622c,pb,1648751399001,0.0.2,,,,,,,,,,,,,,,,,,,,,,,,,11970,0,40938,0,0,0,-40938,11970
1629976816574,200,0,,,0,,0,,0,,0,,0,,,,,7fa42338-d30a-4f4d-a669-c28ae2309c8d,0,Receipt,123,a4c21fc1-28df-494b-8983-baf3c6b027d7,Exp-2,NON_SCHEME,1617215400001,pb,Punjab,335633ad-007f-440d-a139-c0b9e63f943d,PR3,,a4c21fc1-28df-494b-8983-baf3c6b027d7,3d9ef18a-361a-40cf-b142-dd6f998e1ac5,Project3,167fe9a2-d4a3-47e2-a211-1a30def5622c,pb,1648751399001,0.0.2,,,,,,,,,,,,,,,,,,,,,,,,,11970,0,40938,0,0,0,-40938,11970
1629976816574,500,0,,,0,,0,,0,,0,,0,,,,,7fa42338-d30a-4f4d-a669-c28ae2309c8d,0,Receipt,123,a4c21fc1-28df-494b-8983-baf3c6b027d7,Exp-2,NON_SCHEME,1617215400000,pb,Punjab,be1d6121-9ad8-49c9-92fc-aeefa1ca7ef4,PR3,,a4c21fc1-28df-494b-8983-baf3c6b027d7,3d9ef18a-361a-40cf-b142-dd6f998e1ac5,Project3,167fe9a2-d4a3-47e2-a211-1a30def5622c,pb,1648751399000,0.0.2,,,,,,,,,,,,,,,,,,,,,,,,,11970,0,40938,0,0,0,-40938,11970
1629976817077,-50,0,,,0,,0,,0,,0,,0,,,,,ff792adf-a3b1-4b79-92b7-697bc270ed2f,0,Receipt,123,a4c21fc1-28df-494b-8983-baf3c6b027d7,Exp-2,NON_SCHEME,1617215400000,pb,Punjab,d163c7e3-5393-4768-8315-2fb48b62e61f,PR3,,a4c21fc1-28df-494b-8983-baf3c6b027d7,3d9ef18a-361a-40cf-b142-dd6f998e1ac5,Project3,167fe9a2-d4a3-47e2-a211-1a30def5622c,pb,1648751399000,0.0.2,,,,,,,,,,,,,,,,,,,,,,,,,11970,0,40938,0,0,0,-40938,11970
1629976817077,-50,0,,,0,,0,,0,,0,,0,,,,,ff792adf-a3b1-4b79-92b7-697bc270ed2f,0,Receipt,123,a4c21fc1-28df-494b-8983-baf3c6b027d7,Exp-2,NON_SCHEME,1617215400001,pb,Punjab,938cfc28-2345-42a0-aa47-af096396bb40,PR3,,a4c21fc1-28df-494b-8983-baf3c6b027d7,3d9ef18a-361a-40cf-b142-dd6f998e1ac5,Project3,167fe9a2-d4a3-47e2-a211-1a30def5622c,pb,1648751399001,0.0.2,,,,,,,,,,,,,,,,,,,,,,,,,11970,0,40938,0,0,0,-40938,11970
1629976817077,0,0,,,0,,0,,0,,0,,0,,,,,ff792adf-a3b1-4b79-92b7-697bc270ed2f,0,Receipt,123,a4c21fc1-28df-494b-8983-baf3c6b027d7,Exp-2,NON_SCHEME,1617215400000,pb,Punjab,19f736b1-96b7-4828-89b3-7a556d810890,PR3,,a4c21fc1-28df-494b-8983-baf3c6b027d7,3d9ef18a-361a-40cf-b142-dd6f998e1ac5,Project3,167fe9a2-d4a3-47e2-a211-1a30def5622c,pb,1648751399000,0.0.2,,,,,,,,,,,,,,,,,,,,,,,,,11970,0,40938,0,0,0,-40938,11970
1629976817077,0,0,,,0,,0,,0,,0,,0,,,,,ff792adf-a3b1-4b79-92b7-697bc270ed2f,0,Receipt,123,a4c21fc1-28df-494b-8983-baf3c6b027d7,Exp-2,NON_SCHEME,1617215400000,pb,Punjab,455f1a88-724f-4cd1-8e28-7ae1a9d71b90,PR3,,a4c21fc1-28df-494b-8983-baf3c6b027d7,3d9ef18a-361a-40cf-b142-dd6f998e1ac5,Project3,167fe9a2-d4a3-47e2-a211-1a30def5622c,pb,1648751399000,0.0.2,,,,,,,,,,,,,,,,,,,,,,,,,11970,0,40938,0,0,0,-40938,11970
1629976817077,0,0,,,0,,0,,0,,0,,0,,,,,ff792adf-a3b1-4b79-92b7-697bc270ed2f,0,Receipt,123,a4c21fc1-28df-494b-8983-baf3c6b027d7,Exp-2,NON_SCHEME,1617215400000,pb,Punjab,52481fc8-8f69-4cda-a26b-1ec0eb2e7af5,PR3,,a4c21fc1-28df-494b-8983-baf3c6b027d7,3d9ef18a-361a-40cf-b142-dd6f998e1ac5,Project3,167fe9a2-d4a3-47e2-a211-1a30def5622c,pb,1648751399000,0.0.2,,,,,,,,,,,,,,,,,,,,,,,,,11970,0,40938,0,0,0,-40938,11970
1629976817077,0,0,,,0,,0,,0,,0,,0,,,,,ff792adf-a3b1-4b79-92b7-697bc270ed2f,0,Receipt,123,a4c21fc1-28df-494b-8983-baf3c6b027d7,Exp-2,NON_SCHEME,1617215400000,pb,Punjab,b321f8aa-1c82-40a4-aefc-502059432510,PR3,,a4c21fc1-28df-494b-8983-baf3c6b027d7,3d9ef18a-361a-40cf-b142-dd6f998e1ac5,Project3,167fe9a2-d4a3-47e2-a211-1a30def5622c,pb,1648751399000,0.0.2,,,,,,,,,,,,,,,,,,,,,,,,,11970,0,40938,0,0,0,-40938,11970
1629976817077,0,0,,,0,,0,,0,,0,,0,,,,,ff792adf-a3b1-4b79-92b7-697bc270ed2f,0,Receipt,123,a4c21fc1-28df-494b-8983-baf3c6b027d7,Exp-2,NON_SCHEME,1617215400000,pb,Punjab,e3be03bc-1875-4fa6-8535-8738f3cd34f4,PR3,,a4c21fc1-28df-494b-8983-baf3c6b027d7,3d9ef18a-361a-40cf-b142-dd6f998e1ac5,Project3,167fe9a2-d4a3-47e2-a211-1a30def5622c,pb,1648751399000,0.0.2,,,,,,,,,,,,,,,,,,,,,,,,,11970,0,40938,0,0,0,-40938,11970
1629976817077,0,0,,,0,,0,,0,,0,,0,,,,,ff792adf-a3b1-4b79-92b7-697bc270ed2f,0,Receipt,123,a4c21fc1-28df-494b-8983-baf3c6b027d7,Exp-2,NON_SCHEME,1617215400001,pb,Punjab,3e0a80d2-b71f-4ea3-8530-1f9c1f29f149,PR3,,a4c21fc1-28df-494b-8983-baf3c6b027d7,3d9ef18a-361a-40cf-b142-dd6f998e1ac5,Project3,167fe9a2-d4a3-47e2-a211-1a30def5622c,pb,1648751399001,0.0.2,,,,,,,,,,,,,,,,,,,,,,,,,11970,0,40938,0,0,0,-40938,11970
1629976817077,5,0,,,0,,0,,0,,0,,0,,,,,ff792adf-a3b1-4b79-92b7-697bc270ed2f,0,Receipt,123,a4c21fc1-28df-494b-8983-baf3c6b027d7,Exp-2,NON_SCHEME,1617215400001,pb,Punjab,178daafc-0b1d-4474-b606-b656ba518580,PR3,,a4c21fc1-28df-494b-8983-baf3c6b027d7,3d9ef18a-361a-40cf-b142-dd6f998e1ac5,Project3,167fe9a2-d4a3-47e2-a211-1a30def5622c,pb,1648751399001,0.0.2,,,,,,,,,,,,,,,,,,,,,,,,,11970,0,40938,0,0,0,-40938,11970
1629976817077,25,0,,,0,,0,,0,,0,,0,,,,,ff792adf-a3b1-4b79-92b7-697bc270ed2f,0,Receipt,123,a4c21fc1-28df-494b-8983-baf3c6b027d7,Exp-2,NON_SCHEME,1617215400000,pb,Punjab,fdad7d6a-25d5-4cf7-8315-50974adf8f20,PR3,,a4c21fc1-28df-494b-8983-baf3c6b027d7,3d9ef18a-361a-40cf-b142-dd6f998e1ac5,Project3,167fe9a2-d4a3-47e2-a211-1a30def5622c,pb,1648751399000,0.0.2,,,,,,,,,,,,,,,,,,,,,,,,,11970,0,40938,0,0,0,-40938,11970
1629976817077,25,0,,,0,,0,,0,,0,,0,,,,,ff792adf-a3b1-4b79-92b7-697bc270ed2f,0,Receipt,123,a4c21fc1-28df-494b-8983-baf3c6b027d7,Exp-2,NON_SCHEME,1617215400001,pb,Punjab,adc0177d-8d05-483d-a51c-7f778b7e3da5,PR3,,a4c21fc1-28df-494b-8983-baf3c6b027d7,3d9ef18a-361a-40cf-b142-dd6f998e1ac5,Project3,167fe9a2-d4a3-47e2-a211-1a30def5622c,pb,1648751399001,0.0.2,,,,,,,,,,,,,,,,,,,,,,,,,11970,0,40938,0,0,0,-40938,11970
1629976817077,50,0,,,0,,0,,0,,0,,0,,,,,ff792adf-a3b1-4b79-92b7-697bc270ed2f,0,Receipt,123,a4c21fc1-28df-494b-8983-baf3c6b027d7,Exp-2,NON_SCHEME,1617215400001,pb,Punjab,a3006d9a-778b-4dba-b326-8bad52703005,PR3,,a4c21fc1-28df-494b-8983-baf3c6b027d7,3d9ef18a-361a-40cf-b142-dd6f998e1ac5,Project3,167fe9a2-d4a3-47e2-a211-1a30def5622c,pb,1648751399001,0.0.2,,,,,,,,,,,,,,,,,,,,,,,,,11970,0,40938,0,0,0,-40938,11970
1629976817077,50,0,,,0,,0,,0,,0,,0,,,,,ff792adf-a3b1-4b79-92b7-697bc270ed2f,0,Receipt,123,a4c21fc1-28df-494b-8983-baf3c6b027d7,Exp-2,NON_SCHEME,1617215400001,pb,Punjab,fc360cac-47b3-450d-a87f-bfbadeaf704b,PR3,,a4c21fc1-28df-494b-8983-baf3c6b027d7,3d9ef18a-361a-40cf-b142-dd6f998e1ac5,Project3,167fe9a2-d4a3-47e2-a211-1a30def5622c,pb,1648751399001,0.0.2,,,,,,,,,,,,,,,,,,,,,,,,,11970,0,40938,0,0,0,-40938,11970
1629976817077,100,0,,,0,,0,,0,,0,,0,,,,,ff792adf-a3b1-4b79-92b7-697bc270ed2f,0,Receipt,123,a4c21fc1-28df-494b-8983-baf3c6b027d7,Exp-2,NON_SCHEME,1617215400001,pb,Punjab,eb36e593-3411-4b4d-b97c-01e87a851c7b,PR3,,a4c21fc1-28df-494b-8983-baf3c6b027d7,3d9ef18a-361a-40cf-b142-dd6f998e1ac5,Project3,167fe9a2-d4a3-47e2-a211-1a30def5622c,pb,1648751399001,0.0.2,,,,,,,,,,,,,,,,,,,,,,,,,11970,0,40938,0,0,0,-40938,11970
1629976817077,200,0,,,0,,0,,0,,0,,0,,,,,ff792adf-a3b1-4b79-92b7-697bc270ed2f,0,Receipt,123,a4c21fc1-28df-494b-8983-baf3c6b027d7,Exp-2,NON_SCHEME,1617215400001,pb,Punjab,c60836ee-1daa-48e1-af0b-140aa3b6b7f3,PR3,,a4c21fc1-28df-494b-8983-baf3c6b027d7,3d9ef18a-361a-40cf-b142-dd6f998e1ac5,Project3,167fe9a2-d4a3-47e2-a211-1a30def5622c,pb,1648751399001,0.0.2,,,,,,,,,,,,,,,,,,,,,,,,,11970,0,40938,0,0,0,-40938,11970
1629976817077,500,0,,,0,,0,,0,,0,,0,,,,,ff792adf-a3b1-4b79-92b7-697bc270ed2f,0,Receipt,123,a4c21fc1-28df-494b-8983-baf3c6b027d7,Exp-2,NON_SCHEME,1617215400000,pb,Punjab,4eb01cfc-5631-43a4-8782-c5e5bf6c4f5f,PR3,,a4c21fc1-28df-494b-8983-baf3c6b027d7,3d9ef18a-361a-40cf-b142-dd6f998e1ac5,Project3,167fe9a2-d4a3-47e2-a211-1a30def5622c,pb,1648751399000,0.0.2,,,,,,,,,,,,,,,,,,,,,,,,,11970,0,40938,0,0,0,-40938,11970
1629976817396,-50,0,,,0,,0,,0,,0,,0,,,,,9ab5808f-8da2-4765-8d58-91685b97a8cb,0,Receipt,123,a4c21fc1-28df-494b-8983-baf3c6b027d7,Exp-2,NON_SCHEME,1617215400000,pb,Punjab,6b47df0d-e45e-413c-8298-216eb7fac200,PR3,,a4c21fc1-28df-494b-8983-baf3c6b027d7,3d9ef18a-361a-40cf-b142-dd6f998e1ac5,Project3,167fe9a2-d4a3-47e2-a211-1a30def5622c,pb,1648751399000,0.0.2,,,,,,,,,,,,,,,,,,,,,,,,,11970,0,40938,0,0,0,-40938,11970
1629976817396,-50,0,,,0,,0,,0,,0,,0,,,,,9ab5808f-8da2-4765-8d58-91685b97a8cb,0,Receipt,123,a4c21fc1-28df-494b-8983-baf3c6b027d7,Exp-2,NON_SCHEME,1617215400001,pb,Punjab,770dcfd8-212a-4fec-b161-cbe9e7cbdc05,PR3,,a4c21fc1-28df-494b-8983-baf3c6b027d7,3d9ef18a-361a-40cf-b142-dd6f998e1ac5,Project3,167fe9a2-d4a3-47e2-a211-1a30def5622c,pb,1648751399001,0.0.2,,,,,,,,,,,,,,,,,,,,,,,,,11970,0,40938,0,0,0,-40938,11970
1629976817396,0,0,,,0,,0,,0,,0,,0,,,,,9ab5808f-8da2-4765-8d58-91685b97a8cb,0,Receipt,123,a4c21fc1-28df-494b-8983-baf3c6b027d7,Exp-2,NON_SCHEME,1617215400000,pb,Punjab,099eedf5-7249-40e0-9f3f-20ae4620c955,PR3,,a4c21fc1-28df-494b-8983-baf3c6b027d7,3d9ef18a-361a-40cf-b142-dd6f998e1ac5,Project3,167fe9a2-d4a3-47e2-a211-1a30def5622c,pb,1648751399000,0.0.2,,,,,,,,,,,,,,,,,,,,,,,,,11970,0,40938,0,0,0,-40938,11970
1629976817396,0,0,,,0,,0,,0,,0,,0,,,,,9ab5808f-8da2-4765-8d58-91685b97a8cb,0,Receipt,123,a4c21fc1-28df-494b-8983-baf3c6b027d7,Exp-2,NON_SCHEME,1617215400000,pb,Punjab,3dc2afa3-d858-4033-8329-3fb354464762,PR3,,a4c21fc1-28df-494b-8983-baf3c6b027d7,3d9ef18a-361a-40cf-b142-dd6f998e1ac5,Project3,167fe9a2-d4a3-47e2-a211-1a30def5622c,pb,1648751399000,0.0.2,,,,,,,,,,,,,,,,,,,,,,,,,11970,0,40938,0,0,0,-40938,11970
1629976817396,0,0,,,0,,0,,0,,0,,0,,,,,9ab5808f-8da2-4765-8d58-91685b97a8cb,0,Receipt,123,a4c21fc1-28df-494b-8983-baf3c6b027d7,Exp-2,NON_SCHEME,1617215400000,pb,Punjab,3e753f85-00dd-4ced-841c-954c3de4d387,PR3,,a4c21fc1-28df-494b-8983-baf3c6b027d7,3d9ef18a-361a-40cf-b142-dd6f998e1ac5,Project3,167fe9a2-d4a3-47e2-a211-1a30def5622c,pb,1648751399000,0.0.2,,,,,,,,,,,,,,,,,,,,,,,,,11970,0,40938,0,0,0,-40938,11970
1629976817396,0,0,,,0,,0,,0,,0,,0,,,,,9ab5808f-8da2-4765-8d58-91685b97a8cb,0,Receipt,123,a4c21fc1-28df-494b-8983-baf3c6b027d7,Exp-2,NON_SCHEME,1617215400000,pb,Punjab,c223c017-67f3-464e-9826-7837bd07e317,PR3,,a4c21fc1-28df-494b-8983-baf3c6b027d7,3d9ef18a-361a-40cf-b142-dd6f998e1ac5,Project3,167fe9a2-d4a3-47e2-a211-1a30def5622c,pb,1648751399000,0.0.2,,,,,,,,,,,,,,,,,,,,,,,,,11970,0,40938,0,0,0,-40938,11970
1629976817396,0,0,,,0,,0,,0,,0,,0,,,,,9ab5808f-8da2-4765-8d58-91685b97a8cb,0,Receipt,123,a4c21fc1-28df-494b-8983-baf3c6b027d7,Exp-2,NON_SCHEME,1617215400000,pb,Punjab,fe14231b-4f82-4e17-94e4-1bd2d2e2680a,PR3,,a4c21fc1-28df-494b-8983-baf3c6b027d7,3d9ef18a-361a-40cf-b142-dd6f998e1ac5,Project3,167fe9a2-d4a3-47e2-a211-1a30def5622c,pb,1648751399000,0.0.2,,,,,,,,,,,,,,,,,,,,,,,,,11970,0,40938,0,0,0,-40938,11970
1629976817396,0,0,,,0,,0,,0,,0,,0,,,,,9ab5808f-8da2-4765-8d58-91685b97a8cb,0,Receipt,123,a4c21fc1-28df-494b-8983-baf3c6b027d7,Exp-2,NON_SCHEME,1617215400001,pb,Punjab,8fe4b575-9166-472d-be62-e35a2292a075,PR3,,a4c21fc1-28df-494b-8983-baf3c6b027d7,3d9ef18a-361a-40cf-b142-dd6f998e1ac5,Project3,167fe9a2-d4a3-47e2-a211-1a30def5622c,pb,1648751399001,0.0.2,,,,,,,,,,,,,,,,,,,,,,,,,11970,0,40938,0,0,0,-40938,11970
1629976817396,5,0,,,0,,0,,0,,0,,0,,,,,9ab5808f-8da2-4765-8d58-91685b97a8cb,0,Receipt,123,a4c21fc1-28df-494b-8983-baf3c6b027d7,Exp-2,NON_SCHEME,1617215400001,pb,Punjab,794969f9-0efc-4f73-8449-1351b986da6c,PR3,,a4c21fc1-28df-494b-8983-baf3c6b027d7,3d9ef18a-361a-40cf-b142-dd6f998e1ac5,Project3,167fe9a2-d4a3-47e2-a211-1a30def5622c,pb,1648751399001,0.0.2,,,,,,,,,,,,,,,,,,,,,,,,,11970,0,40938,0,0,0,-40938,11970
1629976817396,25,0,,,0,,0,,0,,0,,0,,,,,9ab5808f-8da2-4765-8d58-91685b97a8cb,0,Receipt,123,a4c21fc1-28df-494b-8983-baf3c6b027d7,Exp-2,NON_SCHEME,1617215400000,pb,Punjab,2ac7bd50-3e65-4907-988d-983c49272332,PR3,,a4c21fc1-28df-494b-8983-baf3c6b027d7,3d9ef18a-361a-40cf-b142-dd6f998e1ac5,Project3,167fe9a2-d4a3-47e2-a211-1a30def5622c,pb,1648751399000,0.0.2,,,,,,,,,,,,,,,,,,,,,,,,,11970,0,40938,0,0,0,-40938,11970
1629976817396,25,0,,,0,,0,,0,,0,,0,,,,,9ab5808f-8da2-4765-8d58-91685b97a8cb,0,Receipt,123,a4c21fc1-28df-494b-8983-baf3c6b027d7,Exp-2,NON_SCHEME,1617215400001,pb,Punjab,6a2d8e93-70e6-483d-929b-327acb8e98db,PR3,,a4c21fc1-28df-494b-8983-baf3c6b027d7,3d9ef18a-361a-40cf-b142-dd6f998e1ac5,Project3,167fe9a2-d4a3-47e2-a211-1a30def5622c,pb,1648751399001,0.0.2,,,,,,,,,,,,,,,,,,,,,,,,,11970,0,40938,0,0,0,-40938,11970
1629976817396,50,0,,,0,,0,,0,,0,,0,,,,,9ab5808f-8da2-4765-8d58-91685b97a8cb,0,Receipt,123,a4c21fc1-28df-494b-8983-baf3c6b027d7,Exp-2,NON_SCHEME,1617215400001,pb,Punjab,5c1de92e-7736-4d44-b52c-cf4348b1d30b,PR3,,a4c21fc1-28df-494b-8983-baf3c6b027d7,3d9ef18a-361a-40cf-b142-dd6f998e1ac5,Project3,167fe9a2-d4a3-47e2-a211-1a30def5622c,pb,1648751399001,0.0.2,,,,,,,,,,,,,,,,,,,,,,,,,11970,0,40938,0,0,0,-40938,11970
1629976817396,50,0,,,0,,0,,0,,0,,0,,,,,9ab5808f-8da2-4765-8d58-91685b97a8cb,0,Receipt,123,a4c21fc1-28df-494b-8983-baf3c6b027d7,Exp-2,NON_SCHEME,1617215400001,pb,Punjab,850181d4-8ae7-441e-9883-54f7d9f224ca,PR3,,a4c21fc1-28df-494b-8983-baf3c6b027d7,3d9ef18a-361a-40cf-b142-dd6f998e1ac5,Project3,167fe9a2-d4a3-47e2-a211-1a30def5622c,pb,1648751399001,0.0.2,,,,,,,,,,,,,,,,,,,,,,,,,11970,0,40938,0,0,0,-40938,11970
1629976817396,100,0,,,0,,0,,0,,0,,0,,,,,9ab5808f-8da2-4765-8d58-91685b97a8cb,0,Receipt,123,a4c21fc1-28df-494b-8983-baf3c6b027d7,Exp-2,NON_SCHEME,1617215400001,pb,Punjab,dc5648c7-e712-4d84-8fb2-d6c09f1d4e8b,PR3,,a4c21fc1-28df-494b-8983-baf3c6b027d7,3d9ef18a-361a-40cf-b142-dd6f998e1ac5,Project3,167fe9a2-d4a3-47e2-a211-1a30def5622c,pb,1648751399001,0.0.2,,,,,,,,,,,,,,,,,,,,,,,,,11970,0,40938,0,0,0,-40938,11970
1629976817396,200,0,,,0,,0,,0,,0,,0,,,,,9ab5808f-8da2-4765-8d58-91685b97a8cb,0,Receipt,123,a4c21fc1-28df-494b-8983-baf3c6b027d7,Exp-2,NON_SCHEME,1617215400001,pb,Punjab,15fefa8e-fa83-4f82-800d-06e053f8a752,PR3,,a4c21fc1-28df-494b-8983-baf3c6b027d7,3d9ef18a-361a-40cf-b142-dd6f998e1ac5,Project3,167fe9a2-d4a3-47e2-a211-1a30def5622c,pb,1648751399001,0.0.2,,,,,,,,,,,,,,,,,,,,,,,,,11970,0,40938,0,0,0,-40938,11970
1629976817396,500,0,,,0,,0,,0,,0,,0,,,,,9ab5808f-8da2-4765-8d58-91685b97a8cb,0,Receipt,123,a4c21fc1-28df-494b-8983-baf3c6b027d7,Exp-2,NON_SCHEME,1617215400000,pb,Punjab,f895847b-a6d7-4a20-a752-ca91599a25d7,PR3,,a4c21fc1-28df-494b-8983-baf3c6b027d7,3d9ef18a-361a-40cf-b142-dd6f998e1ac5,Project3,167fe9a2-d4a3-47e2-a211-1a30def5622c,pb,1648751399000,0.0.2,,,,,,,,,,,,,,,,,,,,,,,,,11970,0,40938,0,0,0,-40938,11970
1629976817683,-50,0,,,0,,0,,0,,0,,0,,,,,dca01fa2-79d3-4208-97a9-fbc3d7bf52b0,0,Receipt,123,a4c21fc1-28df-494b-8983-baf3c6b027d7,Exp-2,NON_SCHEME,1617215400000,pb,Punjab,dc7e8dcb-7400-4fd2-82b7-d735072fd7db,PR3,,a4c21fc1-28df-494b-8983-baf3c6b027d7,3d9ef18a-361a-40cf-b142-dd6f998e1ac5,Project3,167fe9a2-d4a3-47e2-a211-1a30def5622c,pb,1648751399000,0.0.2,,,,,,,,,,,,,,,,,,,,,,,,,11970,0,40938,0,0,0,-40938,11970
1629976817683,-50,0,,,0,,0,,0,,0,,0,,,,,dca01fa2-79d3-4208-97a9-fbc3d7bf52b0,0,Receipt,123,a4c21fc1-28df-494b-8983-baf3c6b027d7,Exp-2,NON_SCHEME,1617215400001,pb,Punjab,a3673dca-d834-4fac-9a2a-caf1406873ed,PR3,,a4c21fc1-28df-494b-8983-baf3c6b027d7,3d9ef18a-361a-40cf-b142-dd6f998e1ac5,Project3,167fe9a2-d4a3-47e2-a211-1a30def5622c,pb,1648751399001,0.0.2,,,,,,,,,,,,,,,,,,,,,,,,,11970,0,40938,0,0,0,-40938,11970
1629976817683,0,0,,,0,,0,,0,,0,,0,,,,,dca01fa2-79d3-4208-97a9-fbc3d7bf52b0,0,Receipt,123,a4c21fc1-28df-494b-8983-baf3c6b027d7,Exp-2,NON_SCHEME,1617215400000,pb,Punjab,09ecc52b-4507-4f1a-8c72-ed79b838127c,PR3,,a4c21fc1-28df-494b-8983-baf3c6b027d7,3d9ef18a-361a-40cf-b142-dd6f998e1ac5,Project3,167fe9a2-d4a3-47e2-a211-1a30def5622c,pb,1648751399000,0.0.2,,,,,,,,,,,,,,,,,,,,,,,,,11970,0,40938,0,0,0,-40938,11970
1629976817683,0,0,,,0,,0,,0,,0,,0,,,,,dca01fa2-79d3-4208-97a9-fbc3d7bf52b0,0,Receipt,123,a4c21fc1-28df-494b-8983-baf3c6b027d7,Exp-2,NON_SCHEME,1617215400000,pb,Punjab,2702fa7a-5a19-4fd4-bd4c-ce232df33f22,PR3,,a4c21fc1-28df-494b-8983-baf3c6b027d7,3d9ef18a-361a-40cf-b142-dd6f998e1ac5,Project3,167fe9a2-d4a3-47e2-a211-1a30def5622c,pb,1648751399000,0.0.2,,,,,,,,,,,,,,,,,,,,,,,,,11970,0,40938,0,0,0,-40938,11970
1629976817683,0,0,,,0,,0,,0,,0,,0,,,,,dca01fa2-79d3-4208-97a9-fbc3d7bf52b0,0,Receipt,123,a4c21fc1-28df-494b-8983-baf3c6b027d7,Exp-2,NON_SCHEME,1617215400000,pb,Punjab,88551599-9e50-46b0-9c40-d8cd8bf8b17f,PR3,,a4c21fc1-28df-494b-8983-baf3c6b027d7,3d9ef18a-361a-40cf-b142-dd6f998e1ac5,Project3,167fe9a2-d4a3-47e2-a211-1a30def5622c,pb,1648751399000,0.0.2,,,,,,,,,,,,,,,,,,,,,,,,,11970,0,40938,0,0,0,-40938,11970
1629976817683,0,0,,,0,,0,,0,,0,,0,,,,,dca01fa2-79d3-4208-97a9-fbc3d7bf52b0,0,Receipt,123,a4c21fc1-28df-494b-8983-baf3c6b027d7,Exp-2,NON_SCHEME,1617215400000,pb,Punjab,8f168483-3204-468f-9871-9e3a5a7907ec,PR3,,a4c21fc1-28df-494b-8983-baf3c6b027d7,3d9ef18a-361a-40cf-b142-dd6f998e1ac5,Project3,167fe9a2-d4a3-47e2-a211-1a30def5622c,pb,1648751399000,0.0.2,,,,,,,,,,,,,,,,,,,,,,,,,11970,0,40938,0,0,0,-40938,11970
1629976817683,0,0,,,0,,0,,0,,0,,0,,,,,dca01fa2-79d3-4208-97a9-fbc3d7bf52b0,0,Receipt,123,a4c21fc1-28df-494b-8983-baf3c6b027d7,Exp-2,NON_SCHEME,1617215400000,pb,Punjab,c586fcc3-d637-445c-a6d4-3637870ea671,PR3,,a4c21fc1-28df-494b-8983-baf3c6b027d7,3d9ef18a-361a-40cf-b142-dd6f998e1ac5,Project3,167fe9a2-d4a3-47e2-a211-1a30def5622c,pb,1648751399000,0.0.2,,,,,,,,,,,,,,,,,,,,,,,,,11970,0,40938,0,0,0,-40938,11970
1629976817683,0,0,,,0,,0,,0,,0,,0,,,,,dca01fa2-79d3-4208-97a9-fbc3d7bf52b0,0,Receipt,123,a4c21fc1-28df-494b-8983-baf3c6b027d7,Exp-2,NON_SCHEME,1617215400001,pb,Punjab,84973522-d156-450f-9cfc-d2b5a3a2ee74,PR3,,a4c21fc1-28df-494b-8983-baf3c6b027d7,3d9ef18a-361a-40cf-b142-dd6f998e1ac5,Project3,167fe9a2-d4a3-47e2-a211-1a30def5622c,pb,1648751399001,0.0.2,,,,,,,,,,,,,,,,,,,,,,,,,11970,0,40938,0,0,0,-40938,11970
1629976817683,5,0,,,0,,0,,0,,0,,0,,,,,dca01fa2-79d3-4208-97a9-fbc3d7bf52b0,0,Receipt,123,a4c21fc1-28df-494b-8983-baf3c6b027d7,Exp-2,NON_SCHEME,1617215400001,pb,Punjab,67f30386-5eec-4342-b11b-4e45bd849b35,PR3,,a4c21fc1-28df-494b-8983-baf3c6b027d7,3d9ef18a-361a-40cf-b142-dd6f998e1ac5,Project3,167fe9a2-d4a3-47e2-a211-1a30def5622c,pb,1648751399001,0.0.2,,,,,,,,,,,,,,,,,,,,,,,,,11970,0,40938,0,0,0,-40938,11970
1629976817683,25,0,,,0,,0,,0,,0,,0,,,,,dca01fa2-79d3-4208-97a9-fbc3d7bf52b0,0,Receipt,123,a4c21fc1-28df-494b-8983-baf3c6b027d7,Exp-2,NON_SCHEME,1617215400000,pb,Punjab,db36f875-1302-478a-8c9c-39ed1e0d0543,PR3,,a4c21fc1-28df-494b-8983-baf3c6b027d7,3d9ef18a-361a-40cf-b142-dd6f998e1ac5,Project3,167fe9a2-d4a3-47e2-a211-1a30def5622c,pb,1648751399000,0.0.2,,,,,,,,,,,,,,,,,,,,,,,,,11970,0,40938,0,0,0,-40938,11970
1629976817683,25,0,,,0,,0,,0,,0,,0,,,,,dca01fa2-79d3-4208-97a9-fbc3d7bf52b0,0,Receipt,123,a4c21fc1-28df-494b-8983-baf3c6b027d7,Exp-2,NON_SCHEME,1617215400001,pb,Punjab,d027c20f-ddef-4830-a16c-cbb975b4412a,PR3,,a4c21fc1-28df-494b-8983-baf3c6b027d7,3d9ef18a-361a-40cf-b142-dd6f998e1ac5,Project3,167fe9a2-d4a3-47e2-a211-1a30def5622c,pb,1648751399001,0.0.2,,,,,,,,,,,,,,,,,,,,,,,,,11970,0,40938,0,0,0,-40938,11970
1629976817683,50,0,,,0,,0,,0,,0,,0,,,,,dca01fa2-79d3-4208-97a9-fbc3d7bf52b0,0,Receipt,123,a4c21fc1-28df-494b-8983-baf3c6b027d7,Exp-2,NON_SCHEME,1617215400001,pb,Punjab,18fb84fe-b171-444c-bff3-739afaff87b8,PR3,,a4c21fc1-28df-494b-8983-baf3c6b027d7,3d9ef18a-361a-40cf-b142-dd6f998e1ac5,Project3,167fe9a2-d4a3-47e2-a211-1a30def5622c,pb,1648751399001,0.0.2,,,,,,,,,,,,,,,,,,,,,,,,,11970,0,40938,0,0,0,-40938,11970
1629976817683,50,0,,,0,,0,,0,,0,,0,,,,,dca01fa2-79d3-4208-97a9-fbc3d7bf52b0,0,Receipt,123,a4c21fc1-28df-494b-8983-baf3c6b027d7,Exp-2,NON_SCHEME,1617215400001,pb,Punjab,4618f5c8-2dc3-411b-9c1f-69053af97ea6,PR3,,a4c21fc1-28df-494b-8983-baf3c6b027d7,3d9ef18a-361a-40cf-b142-dd6f998e1ac5,Project3,167fe9a2-d4a3-47e2-a211-1a30def5622c,pb,1648751399001,0.0.2,,,,,,,,,,,,,,,,,,,,,,,,,11970,0,40938,0,0,0,-40938,11970
1629976817683,100,0,,,0,,0,,0,,0,,0,,,,,dca01fa2-79d3-4208-97a9-fbc3d7bf52b0,0,Receipt,123,a4c21fc1-28df-494b-8983-baf3c6b027d7,Exp-2,NON_SCHEME,1617215400001,pb,Punjab,ed06c7ea-db55-4c28-b478-8865706dd71e,PR3,,a4c21fc1-28df-494b-8983-baf3c6b027d7,3d9ef18a-361a-40cf-b142-dd6f998e1ac5,Project3,167fe9a2-d4a3-47e2-a211-1a30def5622c,pb,1648751399001,0.0.2,,,,,,,,,,,,,,,,,,,,,,,,,11970,0,40938,0,0,0,-40938,11970
1629976817683,200,0,,,0,,0,,0,,0,,0,,,,,dca01fa2-79d3-4208-97a9-fbc3d7bf52b0,0,Receipt,123,a4c21fc1-28df-494b-8983-baf3c6b027d7,Exp-2,NON_SCHEME,1617215400001,pb,Punjab,45b764b0-a3d7-4f87-9387-033d5a8f4aae,PR3,,a4c21fc1-28df-494b-8983-baf3c6b027d7,3d9ef18a-361a-40cf-b142-dd6f998e1ac5,Project3,167fe9a2-d4a3-47e2-a211-1a30def5622c,pb,1648751399001,0.0.2,,,,,,,,,,,,,,,,,,,,,,,,,11970,0,40938,0,0,0,-40938,11970
1629976817683,500,0,,,0,,0,,0,,0,,0,,,,,dca01fa2-79d3-4208-97a9-fbc3d7bf52b0,0,Receipt,123,a4c21fc1-28df-494b-8983-baf3c6b027d7,Exp-2,NON_SCHEME,1617215400000,pb,Punjab,0bc38950-8f8e-4afe-ae98-f612a148e4bd,PR3,,a4c21fc1-28df-494b-8983-baf3c6b027d7,3d9ef18a-361a-40cf-b142-dd6f998e1ac5,Project3,167fe9a2-d4a3-47e2-a211-1a30def5622c,pb,1648751399000,0.0.2,,,,,,,,,,,,,,,,,,,,,,,,,11970,0,40938,0,0,0,-40938,11970
1629976818045,-50,0,,,0,,0,,0,,0,,0,,,,,d50cd544-7adf-4955-8dd0-64e37cc6fd12,0,Receipt,123,a4c21fc1-28df-494b-8983-baf3c6b027d7,Exp-2,NON_SCHEME,1617215400000,pb,Punjab,bf2d11a7-e599-4b71-80d1-cb37fcd6ee02,PR3,,a4c21fc1-28df-494b-8983-baf3c6b027d7,3d9ef18a-361a-40cf-b142-dd6f998e1ac5,Project3,167fe9a2-d4a3-47e2-a211-1a30def5622c,pb,1648751399000,0.0.2,,,,,,,,,,,,,,,,,,,,,,,,,11970,0,40938,0,0,0,-40938,11970
1629976818045,-50,0,,,0,,0,,0,,0,,0,,,,,d50cd544-7adf-4955-8dd0-64e37cc6fd12,0,Receipt,123,a4c21fc1-28df-494b-8983-baf3c6b027d7,Exp-2,NON_SCHEME,1617215400001,pb,Punjab,7cbde2f8-1649-4fe1-a022-2119387dd608,PR3,,a4c21fc1-28df-494b-8983-baf3c6b027d7,3d9ef18a-361a-40cf-b142-dd6f998e1ac5,Project3,167fe9a2-d4a3-47e2-a211-1a30def5622c,pb,1648751399001,0.0.2,,,,,,,,,,,,,,,,,,,,,,,,,11970,0,40938,0,0,0,-40938,11970
1629976818045,0,0,,,0,,0,,0,,0,,0,,,,,d50cd544-7adf-4955-8dd0-64e37cc6fd12,0,Receipt,123,a4c21fc1-28df-494b-8983-baf3c6b027d7,Exp-2,NON_SCHEME,1617215400000,pb,Punjab,57f5940d-2adf-4323-9cbc-448a575efe8e,PR3,,a4c21fc1-28df-494b-8983-baf3c6b027d7,3d9ef18a-361a-40cf-b142-dd6f998e1ac5,Project3,167fe9a2-d4a3-47e2-a211-1a30def5622c,pb,1648751399000,0.0.2,,,,,,,,,,,,,,,,,,,,,,,,,11970,0,40938,0,0,0,-40938,11970
1629976818045,0,0,,,0,,0,,0,,0,,0,,,,,d50cd544-7adf-4955-8dd0-64e37cc6fd12,0,Receipt,123,a4c21fc1-28df-494b-8983-baf3c6b027d7,Exp-2,NON_SCHEME,1617215400000,pb,Punjab,7db9dfa3-9769-414f-9652-9c0d2d565c5e,PR3,,a4c21fc1-28df-494b-8983-baf3c6b027d7,3d9ef18a-361a-40cf-b142-dd6f998e1ac5,Project3,167fe9a2-d4a3-47e2-a211-1a30def5622c,pb,1648751399000,0.0.2,,,,,,,,,,,,,,,,,,,,,,,,,11970,0,40938,0,0,0,-40938,11970
1629976818045,0,0,,,0,,0,,0,,0,,0,,,,,d50cd544-7adf-4955-8dd0-64e37cc6fd12,0,Receipt,123,a4c21fc1-28df-494b-8983-baf3c6b027d7,Exp-2,NON_SCHEME,1617215400000,pb,Punjab,9f283410-fb35-4b7e-8872-f8d144b00355,PR3,,a4c21fc1-28df-494b-8983-baf3c6b027d7,3d9ef18a-361a-40cf-b142-dd6f998e1ac5,Project3,167fe9a2-d4a3-47e2-a211-1a30def5622c,pb,1648751399000,0.0.2,,,,,,,,,,,,,,,,,,,,,,,,,11970,0,40938,0,0,0,-40938,11970
1629976818045,0,0,,,0,,0,,0,,0,,0,,,,,d50cd544-7adf-4955-8dd0-64e37cc6fd12,0,Receipt,123,a4c21fc1-28df-494b-8983-baf3c6b027d7,Exp-2,NON_SCHEME,1617215400000,pb,Punjab,b53f7b6f-a083-480b-8041-972134b4d396,PR3,,a4c21fc1-28df-494b-8983-baf3c6b027d7,3d9ef18a-361a-40cf-b142-dd6f998e1ac5,Project3,167fe9a2-d4a3-47e2-a211-1a30def5622c,pb,1648751399000,0.0.2,,,,,,,,,,,,,,,,,,,,,,,,,11970,0,40938,0,0,0,-40938,11970
1629976818045,0,0,,,0,,0,,0,,0,,0,,,,,d50cd544-7adf-4955-8dd0-64e37cc6fd12,0,Receipt,123,a4c21fc1-28df-494b-8983-baf3c6b027d7,Exp-2,NON_SCHEME,1617215400000,pb,Punjab,f7a075a4-4b9f-472f-9303-489eb87de00b,PR3,,a4c21fc1-28df-494b-8983-baf3c6b027d7,3d9ef18a-361a-40cf-b142-dd6f998e1ac5,Project3,167fe9a2-d4a3-47e2-a211-1a30def5622c,pb,1648751399000,0.0.2,,,,,,,,,,,,,,,,,,,,,,,,,11970,0,40938,0,0,0,-40938,11970
1629976818045,0,0,,,0,,0,,0,,0,,0,,,,,d50cd544-7adf-4955-8dd0-64e37cc6fd12,0,Receipt,123,a4c21fc1-28df-494b-8983-baf3c6b027d7,Exp-2,NON_SCHEME,1617215400001,pb,Punjab,c3c8e2d1-da7e-4a1e-84e8-b5c8f859bc3a,PR3,,a4c21fc1-28df-494b-8983-baf3c6b027d7,3d9ef18a-361a-40cf-b142-dd6f998e1ac5,Project3,167fe9a2-d4a3-47e2-a211-1a30def5622c,pb,1648751399001,0.0.2,,,,,,,,,,,,,,,,,,,,,,,,,11970,0,40938,0,0,0,-40938,11970
1629976818045,5,0,,,0,,0,,0,,0,,0,,,,,d50cd544-7adf-4955-8dd0-64e37cc6fd12,0,Receipt,123,a4c21fc1-28df-494b-8983-baf3c6b027d7,Exp-2,NON_SCHEME,1617215400001,pb,Punjab,225ab99e-63e0-41ba-b5e3-6bdc16c3e712,PR3,,a4c21fc1-28df-494b-8983-baf3c6b027d7,3d9ef18a-361a-40cf-b142-dd6f998e1ac5,Project3,167fe9a2-d4a3-47e2-a211-1a30def5622c,pb,1648751399001,0.0.2,,,,,,,,,,,,,,,,,,,,,,,,,11970,0,40938,0,0,0,-40938,11970
1629976818045,25,0,,,0,,0,,0,,0,,0,,,,,d50cd544-7adf-4955-8dd0-64e37cc6fd12,0,Receipt,123,a4c21fc1-28df-494b-8983-baf3c6b027d7,Exp-2,NON_SCHEME,1617215400000,pb,Punjab,6cff911a-0ee1-4a2c-92b5-075e038bcdef,PR3,,a4c21fc1-28df-494b-8983-baf3c6b027d7,3d9ef18a-361a-40cf-b142-dd6f998e1ac5,Project3,167fe9a2-d4a3-47e2-a211-1a30def5622c,pb,1648751399000,0.0.2,,,,,,,,,,,,,,,,,,,,,,,,,11970,0,40938,0,0,0,-40938,11970
1629976818045,25,0,,,0,,0,,0,,0,,0,,,,,d50cd544-7adf-4955-8dd0-64e37cc6fd12,0,Receipt,123,a4c21fc1-28df-494b-8983-baf3c6b027d7,Exp-2,NON_SCHEME,1617215400001,pb,Punjab,f1826dee-04d1-4af3-9e69-794d8d7a7f3a,PR3,,a4c21fc1-28df-494b-8983-baf3c6b027d7,3d9ef18a-361a-40cf-b142-dd6f998e1ac5,Project3,167fe9a2-d4a3-47e2-a211-1a30def5622c,pb,1648751399001,0.0.2,,,,,,,,,,,,,,,,,,,,,,,,,11970,0,40938,0,0,0,-40938,11970
1629976818045,50,0,,,0,,0,,0,,0,,0,,,,,d50cd544-7adf-4955-8dd0-64e37cc6fd12,0,Receipt,123,a4c21fc1-28df-494b-8983-baf3c6b027d7,Exp-2,NON_SCHEME,1617215400001,pb,Punjab,7bd63fb7-5800-4a92-81a2-dc94baecd942,PR3,,a4c21fc1-28df-494b-8983-baf3c6b027d7,3d9ef18a-361a-40cf-b142-dd6f998e1ac5,Project3,167fe9a2-d4a3-47e2-a211-1a30def5622c,pb,1648751399001,0.0.2,,,,,,,,,,,,,,,,,,,,,,,,,11970,0,40938,0,0,0,-40938,11970
1629976818045,50,0,,,0,,0,,0,,0,,0,,,,,d50cd544-7adf-4955-8dd0-64e37cc6fd12,0,Receipt,123,a4c21fc1-28df-494b-8983-baf3c6b027d7,Exp-2,NON_SCHEME,1617215400001,pb,Punjab,a74a92f8-12a8-4600-8686-f9089509127c,PR3,,a4c21fc1-28df-494b-8983-baf3c6b027d7,3d9ef18a-361a-40cf-b142-dd6f998e1ac5,Project3,167fe9a2-d4a3-47e2-a211-1a30def5622c,pb,1648751399001,0.0.2,,,,,,,,,,,,,,,,,,,,,,,,,11970,0,40938,0,0,0,-40938,11970
1629976818045,100,0,,,0,,0,,0,,0,,0,,,,,d50cd544-7adf-4955-8dd0-64e37cc6fd12,0,Receipt,123,a4c21fc1-28df-494b-8983-baf3c6b027d7,Exp-2,NON_SCHEME,1617215400001,pb,Punjab,551f6198-a4be-4e03-8b07-da4aa735e0ae,PR3,,a4c21fc1-28df-494b-8983-baf3c6b027d7,3d9ef18a-361a-40cf-b142-dd6f998e1ac5,Project3,167fe9a2-d4a3-47e2-a211-1a30def5622c,pb,1648751399001,0.0.2,,,,,,,,,,,,,,,,,,,,,,,,,11970,0,40938,0,0,0,-40938,11970
1629976818045,200,0,,,0,,0,,0,,0,,0,,,,,d50cd544-7adf-4955-8dd0-64e37cc6fd12,0,Receipt,123,a4c21fc1-28df-494b-8983-baf3c6b027d7,Exp-2,NON_SCHEME,1617215400001,pb,Punjab,b6a2ecd6-93a9-4de4-99d7-6f0a063aed0d,PR3,,a4c21fc1-28df-494b-8983-baf3c6b027d7,3d9ef18a-361a-40cf-b142-dd6f998e1ac5,Project3,167fe9a2-d4a3-47e2-a211-1a30def5622c,pb,1648751399001,0.0.2,,,,,,,,,,,,,,,,,,,,,,,,,11970,0,40938,0,0,0,-40938,11970
1629976818045,500,0,,,0,,0,,0,,0,,0,,,,,d50cd544-7adf-4955-8dd0-64e37cc6fd12,0,Receipt,123,a4c21fc1-28df-494b-8983-baf3c6b027d7,Exp-2,NON_SCHEME,1617215400000,pb,Punjab,325903f9-5bbb-478c-91df-5cda29033ffb,PR3,,a4c21fc1-28df-494b-8983-baf3c6b027d7,3d9ef18a-361a-40cf-b142-dd6f998e1ac5,Project3,167fe9a2-d4a3-47e2-a211-1a30def5622c,pb,1648751399000,0.0.2,,,,,,,,,,,,,,,,,,,,,,,,,11970,0,40938,0,0,0,-40938,11970
1629976818354,-50,0,,,0,,0,,0,,0,,0,,,,,a6911d62-561d-40c5-911b-0e842929bf3a,0,Receipt,123,a4c21fc1-28df-494b-8983-baf3c6b027d7,Exp-2,NON_SCHEME,1617215400000,pb,Punjab,9b6e7de7-ba32-4f83-b177-9f8e50321d4b,PR3,,a4c21fc1-28df-494b-8983-baf3c6b027d7,3d9ef18a-361a-40cf-b142-dd6f998e1ac5,Project3,167fe9a2-d4a3-47e2-a211-1a30def5622c,pb,1648751399000,0.0.2,,,,,,,,,,,,,,,,,,,,,,,,,11970,0,40938,0,0,0,-40938,11970
1629976818354,-50,0,,,0,,0,,0,,0,,0,,,,,a6911d62-561d-40c5-911b-0e842929bf3a,0,Receipt,123,a4c21fc1-28df-494b-8983-baf3c6b027d7,Exp-2,NON_SCHEME,1617215400001,pb,Punjab,ea71a9ae-33a4-4c62-9a90-68e72788a435,PR3,,a4c21fc1-28df-494b-8983-baf3c6b027d7,3d9ef18a-361a-40cf-b142-dd6f998e1ac5,Project3,167fe9a2-d4a3-47e2-a211-1a30def5622c,pb,1648751399001,0.0.2,,,,,,,,,,,,,,,,,,,,,,,,,11970,0,40938,0,0,0,-40938,11970
1629976818354,0,0,,,0,,0,,0,,0,,0,,,,,a6911d62-561d-40c5-911b-0e842929bf3a,0,Receipt,123,a4c21fc1-28df-494b-8983-baf3c6b027d7,Exp-2,NON_SCHEME,1617215400000,pb,Punjab,b725ddde-31c2-4ee4-8c34-a1f7f74af65d,PR3,,a4c21fc1-28df-494b-8983-baf3c6b027d7,3d9ef18a-361a-40cf-b142-dd6f998e1ac5,Project3,167fe9a2-d4a3-47e2-a211-1a30def5622c,pb,1648751399000,0.0.2,,,,,,,,,,,,,,,,,,,,,,,,,11970,0,40938,0,0,0,-40938,11970
1629976818354,0,0,,,0,,0,,0,,0,,0,,,,,a6911d62-561d-40c5-911b-0e842929bf3a,0,Receipt,123,a4c21fc1-28df-494b-8983-baf3c6b027d7,Exp-2,NON_SCHEME,1617215400000,pb,Punjab,c32f9d1d-f91b-48ba-b75d-07a8d615bb33,PR3,,a4c21fc1-28df-494b-8983-baf3c6b027d7,3d9ef18a-361a-40cf-b142-dd6f998e1ac5,Project3,167fe9a2-d4a3-47e2-a211-1a30def5622c,pb,1648751399000,0.0.2,,,,,,,,,,,,,,,,,,,,,,,,,11970,0,40938,0,0,0,-40938,11970
1629976818354,0,0,,,0,,0,,0,,0,,0,,,,,a6911d62-561d-40c5-911b-0e842929bf3a,0,Receipt,123,a4c21fc1-28df-494b-8983-baf3c6b027d7,Exp-2,NON_SCHEME,1617215400000,pb,Punjab,d8acb37a-1bc0-4505-9967-6bb57c49b072,PR3,,a4c21fc1-28df-494b-8983-baf3c6b027d7,3d9ef18a-361a-40cf-b142-dd6f998e1ac5,Project3,167fe9a2-d4a3-47e2-a211-1a30def5622c,pb,1648751399000,0.0.2,,,,,,,,,,,,,,,,,,,,,,,,,11970,0,40938,0,0,0,-40938,11970
1629976818354,0,0,,,0,,0,,0,,0,,0,,,,,a6911d62-561d-40c5-911b-0e842929bf3a,0,Receipt,123,a4c21fc1-28df-494b-8983-baf3c6b027d7,Exp-2,NON_SCHEME,1617215400000,pb,Punjab,db4d4d89-c5b9-46ae-a5e2-b59e2484a1d5,PR3,,a4c21fc1-28df-494b-8983-baf3c6b027d7,3d9ef18a-361a-40cf-b142-dd6f998e1ac5,Project3,167fe9a2-d4a3-47e2-a211-1a30def5622c,pb,1648751399000,0.0.2,,,,,,,,,,,,,,,,,,,,,,,,,11970,0,40938,0,0,0,-40938,11970
1629976818354,0,0,,,0,,0,,0,,0,,0,,,,,a6911d62-561d-40c5-911b-0e842929bf3a,0,Receipt,123,a4c21fc1-28df-494b-8983-baf3c6b027d7,Exp-2,NON_SCHEME,1617215400000,pb,Punjab,fc7afbf9-2c5f-4fc2-90c0-4db1266bbe2f,PR3,,a4c21fc1-28df-494b-8983-baf3c6b027d7,3d9ef18a-361a-40cf-b142-dd6f998e1ac5,Project3,167fe9a2-d4a3-47e2-a211-1a30def5622c,pb,1648751399000,0.0.2,,,,,,,,,,,,,,,,,,,,,,,,,11970,0,40938,0,0,0,-40938,11970
1629976818354,0,0,,,0,,0,,0,,0,,0,,,,,a6911d62-561d-40c5-911b-0e842929bf3a,0,Receipt,123,a4c21fc1-28df-494b-8983-baf3c6b027d7,Exp-2,NON_SCHEME,1617215400001,pb,Punjab,b5f9e0eb-4c73-42e5-854f-615bc8564586,PR3,,a4c21fc1-28df-494b-8983-baf3c6b027d7,3d9ef18a-361a-40cf-b142-dd6f998e1ac5,Project3,167fe9a2-d4a3-47e2-a211-1a30def5622c,pb,1648751399001,0.0.2,,,,,,,,,,,,,,,,,,,,,,,,,11970,0,40938,0,0,0,-40938,11970
1629976818354,5,0,,,0,,0,,0,,0,,0,,,,,a6911d62-561d-40c5-911b-0e842929bf3a,0,Receipt,123,a4c21fc1-28df-494b-8983-baf3c6b027d7,Exp-2,NON_SCHEME,1617215400001,pb,Punjab,a9a29c6b-01bd-4820-919c-7c6987b01fac,PR3,,a4c21fc1-28df-494b-8983-baf3c6b027d7,3d9ef18a-361a-40cf-b142-dd6f998e1ac5,Project3,167fe9a2-d4a3-47e2-a211-1a30def5622c,pb,1648751399001,0.0.2,,,,,,,,,,,,,,,,,,,,,,,,,11970,0,40938,0,0,0,-40938,11970
1629976818354,25,0,,,0,,0,,0,,0,,0,,,,,a6911d62-561d-40c5-911b-0e842929bf3a,0,Receipt,123,a4c21fc1-28df-494b-8983-baf3c6b027d7,Exp-2,NON_SCHEME,1617215400000,pb,Punjab,faeb3a28-8632-43da-8777-30ebcc40cd61,PR3,,a4c21fc1-28df-494b-8983-baf3c6b027d7,3d9ef18a-361a-40cf-b142-dd6f998e1ac5,Project3,167fe9a2-d4a3-47e2-a211-1a30def5622c,pb,1648751399000,0.0.2,,,,,,,,,,,,,,,,,,,,,,,,,11970,0,40938,0,0,0,-40938,11970
1629976818354,25,0,,,0,,0,,0,,0,,0,,,,,a6911d62-561d-40c5-911b-0e842929bf3a,0,Receipt,123,a4c21fc1-28df-494b-8983-baf3c6b027d7,Exp-2,NON_SCHEME,1617215400001,pb,Punjab,ca0ebdf1-5475-46e8-ab28-25221c56ab7e,PR3,,a4c21fc1-28df-494b-8983-baf3c6b027d7,3d9ef18a-361a-40cf-b142-dd6f998e1ac5,Project3,167fe9a2-d4a3-47e2-a211-1a30def5622c,pb,1648751399001,0.0.2,,,,,,,,,,,,,,,,,,,,,,,,,11970,0,40938,0,0,0,-40938,11970
1629976818354,50,0,,,0,,0,,0,,0,,0,,,,,a6911d62-561d-40c5-911b-0e842929bf3a,0,Receipt,123,a4c21fc1-28df-494b-8983-baf3c6b027d7,Exp-2,NON_SCHEME,1617215400001,pb,Punjab,751b5ddf-6d0b-4340-8446-eea2c6abd489,PR3,,a4c21fc1-28df-494b-8983-baf3c6b027d7,3d9ef18a-361a-40cf-b142-dd6f998e1ac5,Project3,167fe9a2-d4a3-47e2-a211-1a30def5622c,pb,1648751399001,0.0.2,,,,,,,,,,,,,,,,,,,,,,,,,11970,0,40938,0,0,0,-40938,11970
1629976818354,50,0,,,0,,0,,0,,0,,0,,,,,a6911d62-561d-40c5-911b-0e842929bf3a,0,Receipt,123,a4c21fc1-28df-494b-8983-baf3c6b027d7,Exp-2,NON_SCHEME,1617215400001,pb,Punjab,c6d16a99-7569-47a1-b836-7c2da5e1ddbd,PR3,,a4c21fc1-28df-494b-8983-baf3c6b027d7,3d9ef18a-361a-40cf-b142-dd6f998e1ac5,Project3,167fe9a2-d4a3-47e2-a211-1a30def5622c,pb,1648751399001,0.0.2,,,,,,,,,,,,,,,,,,,,,,,,,11970,0,40938,0,0,0,-40938,11970
1629976818354,100,0,,,0,,0,,0,,0,,0,,,,,a6911d62-561d-40c5-911b-0e842929bf3a,0,Receipt,123,a4c21fc1-28df-494b-8983-baf3c6b027d7,Exp-2,NON_SCHEME,1617215400001,pb,Punjab,6d5e83f3-02dd-4965-966f-fd30591cd863,PR3,,a4c21fc1-28df-494b-8983-baf3c6b027d7,3d9ef18a-361a-40cf-b142-dd6f998e1ac5,Project3,167fe9a2-d4a3-47e2-a211-1a30def5622c,pb,1648751399001,0.0.2,,,,,,,,,,,,,,,,,,,,,,,,,11970,0,40938,0,0,0,-40938,11970
1629976818354,200,0,,,0,,0,,0,,0,,0,,,,,a6911d62-561d-40c5-911b-0e842929bf3a,0,Receipt,123,a4c21fc1-28df-494b-8983-baf3c6b027d7,Exp-2,NON_SCHEME,1617215400001,pb,Punjab,d8a4d374-bd85-4068-a3f6-ee8524cbe310,PR3,,a4c21fc1-28df-494b-8983-baf3c6b027d7,3d9ef18a-361a-40cf-b142-dd6f998e1ac5,Project3,167fe9a2-d4a3-47e2-a211-1a30def5622c,pb,1648751399001,0.0.2,,,,,,,,,,,,,,,,,,,,,,,,,11970,0,40938,0,0,0,-40938,11970
1629976818354,500,0,,,0,,0,,0,,0,,0,,,,,a6911d62-561d-40c5-911b-0e842929bf3a,0,Receipt,123,a4c21fc1-28df-494b-8983-baf3c6b027d7,Exp-2,NON_SCHEME,1617215400000,pb,Punjab,8aa0d8f2-f711-469a-9d5b-89f790ffd17f,PR3,,a4c21fc1-28df-494b-8983-baf3c6b027d7,3d9ef18a-361a-40cf-b142-dd6f998e1ac5,Project3,167fe9a2-d4a3-47e2-a211-1a30def5622c,pb,1648751399000,0.0.2,,,,,,,,,,,,,,,,,,,,,,,,,11970,0,40938,0,0,0,-40938,11970
1629976844319,-50,0,,,0,,0,,0,,0,,0,,,,,3e08cb01-360c-4c26-8c33-2a33310f5486,0,Receipt,123,a4c21fc1-28df-494b-8983-baf3c6b027d7,Exp-2,NON_SCHEME,1617215400000,pb,Punjab,87b72c23-155a-4355-a09d-779f7c05282d,PR3,,a4c21fc1-28df-494b-8983-baf3c6b027d7,3d9ef18a-361a-40cf-b142-dd6f998e1ac5,Project3,167fe9a2-d4a3-47e2-a211-1a30def5622c,pb,1648751399000,0.0.2,,,,,,,,,,,,,,,,,,,,,,,,,11970,0,40938,0,0,0,-40938,11970
1629976844319,-50,0,,,0,,0,,0,,0,,0,,,,,3e08cb01-360c-4c26-8c33-2a33310f5486,0,Receipt,123,a4c21fc1-28df-494b-8983-baf3c6b027d7,Exp-2,NON_SCHEME,1617215400001,pb,Punjab,5381a674-c05a-4781-97da-ab183c41e738,PR3,,a4c21fc1-28df-494b-8983-baf3c6b027d7,3d9ef18a-361a-40cf-b142-dd6f998e1ac5,Project3,167fe9a2-d4a3-47e2-a211-1a30def5622c,pb,1648751399001,0.0.2,,,,,,,,,,,,,,,,,,,,,,,,,11970,0,40938,0,0,0,-40938,11970
1629976844319,0,0,,,0,,0,,0,,0,,0,,,,,3e08cb01-360c-4c26-8c33-2a33310f5486,0,Receipt,123,a4c21fc1-28df-494b-8983-baf3c6b027d7,Exp-2,NON_SCHEME,1617215400000,pb,Punjab,6bb35109-f0a2-4913-8e12-45426cfc0b95,PR3,,a4c21fc1-28df-494b-8983-baf3c6b027d7,3d9ef18a-361a-40cf-b142-dd6f998e1ac5,Project3,167fe9a2-d4a3-47e2-a211-1a30def5622c,pb,1648751399000,0.0.2,,,,,,,,,,,,,,,,,,,,,,,,,11970,0,40938,0,0,0,-40938,11970
1629976844319,0,0,,,0,,0,,0,,0,,0,,,,,3e08cb01-360c-4c26-8c33-2a33310f5486,0,Receipt,123,a4c21fc1-28df-494b-8983-baf3c6b027d7,Exp-2,NON_SCHEME,1617215400000,pb,Punjab,7c0ed386-81ff-4cf7-9dc0-65f13392a146,PR3,,a4c21fc1-28df-494b-8983-baf3c6b027d7,3d9ef18a-361a-40cf-b142-dd6f998e1ac5,Project3,167fe9a2-d4a3-47e2-a211-1a30def5622c,pb,1648751399000,0.0.2,,,,,,,,,,,,,,,,,,,,,,,,,11970,0,40938,0,0,0,-40938,11970
1629976844319,0,0,,,0,,0,,0,,0,,0,,,,,3e08cb01-360c-4c26-8c33-2a33310f5486,0,Receipt,123,a4c21fc1-28df-494b-8983-baf3c6b027d7,Exp-2,NON_SCHEME,1617215400000,pb,Punjab,9bfa4bee-b57a-4c89-b2eb-2892dfe63921,PR3,,a4c21fc1-28df-494b-8983-baf3c6b027d7,3d9ef18a-361a-40cf-b142-dd6f998e1ac5,Project3,167fe9a2-d4a3-47e2-a211-1a30def5622c,pb,1648751399000,0.0.2,,,,,,,,,,,,,,,,,,,,,,,,,11970,0,40938,0,0,0,-40938,11970
1629976844319,0,0,,,0,,0,,0,,0,,0,,,,,3e08cb01-360c-4c26-8c33-2a33310f5486,0,Receipt,123,a4c21fc1-28df-494b-8983-baf3c6b027d7,Exp-2,NON_SCHEME,1617215400000,pb,Punjab,9faabc87-a49c-4c13-ad03-843b492b6218,PR3,,a4c21fc1-28df-494b-8983-baf3c6b027d7,3d9ef18a-361a-40cf-b142-dd6f998e1ac5,Project3,167fe9a2-d4a3-47e2-a211-1a30def5622c,pb,1648751399000,0.0.2,,,,,,,,,,,,,,,,,,,,,,,,,11970,0,40938,0,0,0,-40938,11970
1629976844319,0,0,,,0,,0,,0,,0,,0,,,,,3e08cb01-360c-4c26-8c33-2a33310f5486,0,Receipt,123,a4c21fc1-28df-494b-8983-baf3c6b027d7,Exp-2,NON_SCHEME,1617215400000,pb,Punjab,bdc77414-0872-484d-80bc-931c4428ac14,PR3,,a4c21fc1-28df-494b-8983-baf3c6b027d7,3d9ef18a-361a-40cf-b142-dd6f998e1ac5,Project3,167fe9a2-d4a3-47e2-a211-1a30def5622c,pb,1648751399000,0.0.2,,,,,,,,,,,,,,,,,,,,,,,,,11970,0,40938,0,0,0,-40938,11970
1629976844319,0,0,,,0,,0,,0,,0,,0,,,,,3e08cb01-360c-4c26-8c33-2a33310f5486,0,Receipt,123,a4c21fc1-28df-494b-8983-baf3c6b027d7,Exp-2,NON_SCHEME,1617215400001,pb,Punjab,7cf24dda-47b8-4561-9209-0210a69e1f70,PR3,,a4c21fc1-28df-494b-8983-baf3c6b027d7,3d9ef18a-361a-40cf-b142-dd6f998e1ac5,Project3,167fe9a2-d4a3-47e2-a211-1a30def5622c,pb,1648751399001,0.0.2,,,,,,,,,,,,,,,,,,,,,,,,,11970,0,40938,0,0,0,-40938,11970
1629976844319,5,0,,,0,,0,,0,,0,,0,,,,,3e08cb01-360c-4c26-8c33-2a33310f5486,0,Receipt,123,a4c21fc1-28df-494b-8983-baf3c6b027d7,Exp-2,NON_SCHEME,1617215400001,pb,Punjab,3b6c8175-e25f-475f-ab16-9d68f3616c9a,PR3,,a4c21fc1-28df-494b-8983-baf3c6b027d7,3d9ef18a-361a-40cf-b142-dd6f998e1ac5,Project3,167fe9a2-d4a3-47e2-a211-1a30def5622c,pb,1648751399001,0.0.2,,,,,,,,,,,,,,,,,,,,,,,,,11970,0,40938,0,0,0,-40938,11970
1629976844319,25,0,,,0,,0,,0,,0,,0,,,,,3e08cb01-360c-4c26-8c33-2a33310f5486,0,Receipt,123,a4c21fc1-28df-494b-8983-baf3c6b027d7,Exp-2,NON_SCHEME,1617215400000,pb,Punjab,bca2d785-a68d-4fd8-8e6c-d05a80fe7dc6,PR3,,a4c21fc1-28df-494b-8983-baf3c6b027d7,3d9ef18a-361a-40cf-b142-dd6f998e1ac5,Project3,167fe9a2-d4a3-47e2-a211-1a30def5622c,pb,1648751399000,0.0.2,,,,,,,,,,,,,,,,,,,,,,,,,11970,0,40938,0,0,0,-40938,11970
1629976844319,25,0,,,0,,0,,0,,0,,0,,,,,3e08cb01-360c-4c26-8c33-2a33310f5486,0,Receipt,123,a4c21fc1-28df-494b-8983-baf3c6b027d7,Exp-2,NON_SCHEME,1617215400001,pb,Punjab,99efd2c2-6cc0-47b6-92f2-a0a0f9acb304,PR3,,a4c21fc1-28df-494b-8983-baf3c6b027d7,3d9ef18a-361a-40cf-b142-dd6f998e1ac5,Project3,167fe9a2-d4a3-47e2-a211-1a30def5622c,pb,1648751399001,0.0.2,,,,,,,,,,,,,,,,,,,,,,,,,11970,0,40938,0,0,0,-40938,11970
1629976844319,50,0,,,0,,0,,0,,0,,0,,,,,3e08cb01-360c-4c26-8c33-2a33310f5486,0,Receipt,123,a4c21fc1-28df-494b-8983-baf3c6b027d7,Exp-2,NON_SCHEME,1617215400001,pb,Punjab,53a0dc46-990f-4524-be92-a8f93e0fb79b,PR3,,a4c21fc1-28df-494b-8983-baf3c6b027d7,3d9ef18a-361a-40cf-b142-dd6f998e1ac5,Project3,167fe9a2-d4a3-47e2-a211-1a30def5622c,pb,1648751399001,0.0.2,,,,,,,,,,,,,,,,,,,,,,,,,11970,0,40938,0,0,0,-40938,11970
1629976844319,50,0,,,0,,0,,0,,0,,0,,,,,3e08cb01-360c-4c26-8c33-2a33310f5486,0,Receipt,123,a4c21fc1-28df-494b-8983-baf3c6b027d7,Exp-2,NON_SCHEME,1617215400001,pb,Punjab,73493c19-82e1-4880-a741-dd3a9ba95a38,PR3,,a4c21fc1-28df-494b-8983-baf3c6b027d7,3d9ef18a-361a-40cf-b142-dd6f998e1ac5,Project3,167fe9a2-d4a3-47e2-a211-1a30def5622c,pb,1648751399001,0.0.2,,,,,,,,,,,,,,,,,,,,,,,,,11970,0,40938,0,0,0,-40938,11970
1629976844319,100,0,,,0,,0,,0,,0,,0,,,,,3e08cb01-360c-4c26-8c33-2a33310f5486,0,Receipt,123,a4c21fc1-28df-494b-8983-baf3c6b027d7,Exp-2,NON_SCHEME,1617215400001,pb,Punjab,7768f096-822c-4bea-b067-8b6c6748263b,PR3,,a4c21fc1-28df-494b-8983-baf3c6b027d7,3d9ef18a-361a-40cf-b142-dd6f998e1ac5,Project3,167fe9a2-d4a3-47e2-a211-1a30def5622c,pb,1648751399001,0.0.2,,,,,,,,,,,,,,,,,,,,,,,,,11970,0,40938,0,0,0,-40938,11970
1629976844319,200,0,,,0,,0,,0,,0,,0,,,,,3e08cb01-360c-4c26-8c33-2a33310f5486,0,Receipt,123,a4c21fc1-28df-494b-8983-baf3c6b027d7,Exp-2,NON_SCHEME,1617215400001,pb,Punjab,cf4e753a-6284-4ee9-b952-87286ba98fc3,PR3,,a4c21fc1-28df-494b-8983-baf3c6b027d7,3d9ef18a-361a-40cf-b142-dd6f998e1ac5,Project3,167fe9a2-d4a3-47e2-a211-1a30def5622c,pb,1648751399001,0.0.2,,,,,,,,,,,,,,,,,,,,,,,,,11970,0,40938,0,0,0,-40938,11970
1629976844319,500,0,,,0,,0,,0,,0,,0,,,,,3e08cb01-360c-4c26-8c33-2a33310f5486,0,Receipt,123,a4c21fc1-28df-494b-8983-baf3c6b027d7,Exp-2,NON_SCHEME,1617215400000,pb,Punjab,9dfc1561-9e57-4dac-9b50-669af5c761dd,PR3,,a4c21fc1-28df-494b-8983-baf3c6b027d7,3d9ef18a-361a-40cf-b142-dd6f998e1ac5,Project3,167fe9a2-d4a3-47e2-a211-1a30def5622c,pb,1648751399000,0.0.2,,,,,,,,,,,,,,,,,,,,,,,,,11970,0,40938,0,0,0,-40938,11970
1629976965720,10234.5,78,groupHeadName,50cc5634-6cc3-456b-ae33-e40741128cde,8243,majorHeadName82,373,minorHeadName347,90,objectHeadName,56,subHeadName,12,subMajorHeadName,,,,61af6bcb-bedb-46d9-920b-e1ccf324ca05,1629286294000,Bill,123,a4c21fc1-28df-494b-8983-baf3c6b027d7,Exp-2,NON_SCHEME,1622907239000,pb,Punjab,539b09de-683a-4846-926a-08c7bf126474,PR3,,a4c21fc1-28df-494b-8983-baf3c6b027d7,3d9ef18a-361a-40cf-b142-dd6f998e1ac5,Project3,013e9c56-8207-4dac-9f4d-f1e20bd824e7,pb,1628177643000,0.0.2,,,,,,,,,,,,,,,,,,,,,,,,,11970,0,40938,0,0,0,-40938,11970
1629977133141,-50,0,,,0,,0,,0,,0,,0,,,,,ea253716-a989-4714-98e6-6201a683b3ea,0,Receipt,123,a4c21fc1-28df-494b-8983-baf3c6b027d7,Exp-2,NON_SCHEME,1617215400000,pb,Punjab,baf93c06-35e3-42ab-bd22-b92673b7af7c,PR3,,a4c21fc1-28df-494b-8983-baf3c6b027d7,3d9ef18a-361a-40cf-b142-dd6f998e1ac5,Project3,167fe9a2-d4a3-47e2-a211-1a30def5622c,pb,1648751399000,0.0.2,,,,,,,,,,,,,,,,,,,,,,,,,11970,0,40938,0,0,0,-40938,11970
1629977133141,-50,0,,,0,,0,,0,,0,,0,,,,,ea253716-a989-4714-98e6-6201a683b3ea,0,Receipt,123,a4c21fc1-28df-494b-8983-baf3c6b027d7,Exp-2,NON_SCHEME,1617215400001,pb,Punjab,a0e49e9e-88e4-4b33-90c8-c3f64ceac519,PR3,,a4c21fc1-28df-494b-8983-baf3c6b027d7,3d9ef18a-361a-40cf-b142-dd6f998e1ac5,Project3,167fe9a2-d4a3-47e2-a211-1a30def5622c,pb,1648751399001,0.0.2,,,,,,,,,,,,,,,,,,,,,,,,,11970,0,40938,0,0,0,-40938,11970
1629977133141,0,0,,,0,,0,,0,,0,,0,,,,,ea253716-a989-4714-98e6-6201a683b3ea,0,Receipt,123,a4c21fc1-28df-494b-8983-baf3c6b027d7,Exp-2,NON_SCHEME,1617215400000,pb,Punjab,04bf9bba-7e7b-4302-a150-c6a13d29255d,PR3,,a4c21fc1-28df-494b-8983-baf3c6b027d7,3d9ef18a-361a-40cf-b142-dd6f998e1ac5,Project3,167fe9a2-d4a3-47e2-a211-1a30def5622c,pb,1648751399000,0.0.2,,,,,,,,,,,,,,,,,,,,,,,,,11970,0,40938,0,0,0,-40938,11970
1629977133141,0,0,,,0,,0,,0,,0,,0,,,,,ea253716-a989-4714-98e6-6201a683b3ea,0,Receipt,123,a4c21fc1-28df-494b-8983-baf3c6b027d7,Exp-2,NON_SCHEME,1617215400000,pb,Punjab,4241a1e8-d7a9-49dd-b603-edb6e0abf7be,PR3,,a4c21fc1-28df-494b-8983-baf3c6b027d7,3d9ef18a-361a-40cf-b142-dd6f998e1ac5,Project3,167fe9a2-d4a3-47e2-a211-1a30def5622c,pb,1648751399000,0.0.2,,,,,,,,,,,,,,,,,,,,,,,,,11970,0,40938,0,0,0,-40938,11970
1629977133141,0,0,,,0,,0,,0,,0,,0,,,,,ea253716-a989-4714-98e6-6201a683b3ea,0,Receipt,123,a4c21fc1-28df-494b-8983-baf3c6b027d7,Exp-2,NON_SCHEME,1617215400000,pb,Punjab,49e08b8a-72f2-4834-bc27-4ee83895caa1,PR3,,a4c21fc1-28df-494b-8983-baf3c6b027d7,3d9ef18a-361a-40cf-b142-dd6f998e1ac5,Project3,167fe9a2-d4a3-47e2-a211-1a30def5622c,pb,1648751399000,0.0.2,,,,,,,,,,,,,,,,,,,,,,,,,11970,0,40938,0,0,0,-40938,11970
1629977133141,0,0,,,0,,0,,0,,0,,0,,,,,ea253716-a989-4714-98e6-6201a683b3ea,0,Receipt,123,a4c21fc1-28df-494b-8983-baf3c6b027d7,Exp-2,NON_SCHEME,1617215400000,pb,Punjab,6be00b3b-1c11-49ea-846e-324ea04d6467,PR3,,a4c21fc1-28df-494b-8983-baf3c6b027d7,3d9ef18a-361a-40cf-b142-dd6f998e1ac5,Project3,167fe9a2-d4a3-47e2-a211-1a30def5622c,pb,1648751399000,0.0.2,,,,,,,,,,,,,,,,,,,,,,,,,11970,0,40938,0,0,0,-40938,11970
1629977133141,0,0,,,0,,0,,0,,0,,0,,,,,ea253716-a989-4714-98e6-6201a683b3ea,0,Receipt,123,a4c21fc1-28df-494b-8983-baf3c6b027d7,Exp-2,NON_SCHEME,1617215400000,pb,Punjab,f9b85d9a-ae8c-4087-8c94-0c05bf44afca,PR3,,a4c21fc1-28df-494b-8983-baf3c6b027d7,3d9ef18a-361a-40cf-b142-dd6f998e1ac5,Project3,167fe9a2-d4a3-47e2-a211-1a30def5622c,pb,1648751399000,0.0.2,,,,,,,,,,,,,,,,,,,,,,,,,11970,0,40938,0,0,0,-40938,11970
1629977133141,0,0,,,0,,0,,0,,0,,0,,,,,ea253716-a989-4714-98e6-6201a683b3ea,0,Receipt,123,a4c21fc1-28df-494b-8983-baf3c6b027d7,Exp-2,NON_SCHEME,1617215400001,pb,Punjab,2626a618-e9bd-470e-8dd7-d61b0eef6621,PR3,,a4c21fc1-28df-494b-8983-baf3c6b027d7,3d9ef18a-361a-40cf-b142-dd6f998e1ac5,Project3,167fe9a2-d4a3-47e2-a211-1a30def5622c,pb,1648751399001,0.0.2,,,,,,,,,,,,,,,,,,,,,,,,,11970,0,40938,0,0,0,-40938,11970
1629977133141,5,0,,,0,,0,,0,,0,,0,,,,,ea253716-a989-4714-98e6-6201a683b3ea,0,Receipt,123,a4c21fc1-28df-494b-8983-baf3c6b027d7,Exp-2,NON_SCHEME,1617215400001,pb,Punjab,c9be6fca-db9c-4de3-82fe-a46e13028acc,PR3,,a4c21fc1-28df-494b-8983-baf3c6b027d7,3d9ef18a-361a-40cf-b142-dd6f998e1ac5,Project3,167fe9a2-d4a3-47e2-a211-1a30def5622c,pb,1648751399001,0.0.2,,,,,,,,,,,,,,,,,,,,,,,,,11970,0,40938,0,0,0,-40938,11970
1629977133141,25,0,,,0,,0,,0,,0,,0,,,,,ea253716-a989-4714-98e6-6201a683b3ea,0,Receipt,123,a4c21fc1-28df-494b-8983-baf3c6b027d7,Exp-2,NON_SCHEME,1617215400000,pb,Punjab,d5fcf3da-5ef9-438f-9769-7afa1106c7d9,PR3,,a4c21fc1-28df-494b-8983-baf3c6b027d7,3d9ef18a-361a-40cf-b142-dd6f998e1ac5,Project3,167fe9a2-d4a3-47e2-a211-1a30def5622c,pb,1648751399000,0.0.2,,,,,,,,,,,,,,,,,,,,,,,,,11970,0,40938,0,0,0,-40938,11970
1629977133141,25,0,,,0,,0,,0,,0,,0,,,,,ea253716-a989-4714-98e6-6201a683b3ea,0,Receipt,123,a4c21fc1-28df-494b-8983-baf3c6b027d7,Exp-2,NON_SCHEME,1617215400001,pb,Punjab,1138b9be-d026-406e-a988-3d0d0fc49a94,PR3,,a4c21fc1-28df-494b-8983-baf3c6b027d7,3d9ef18a-361a-40cf-b142-dd6f998e1ac5,Project3,167fe9a2-d4a3-47e2-a211-1a30def5622c,pb,1648751399001,0.0.2,,,,,,,,,,,,,,,,,,,,,,,,,11970,0,40938,0,0,0,-40938,11970
1629977133141,50,0,,,0,,0,,0,,0,,0,,,,,ea253716-a989-4714-98e6-6201a683b3ea,0,Receipt,123,a4c21fc1-28df-494b-8983-baf3c6b027d7,Exp-2,NON_SCHEME,1617215400001,pb,Punjab,97881286-2475-447a-8144-0d732b6771b7,PR3,,a4c21fc1-28df-494b-8983-baf3c6b027d7,3d9ef18a-361a-40cf-b142-dd6f998e1ac5,Project3,167fe9a2-d4a3-47e2-a211-1a30def5622c,pb,1648751399001,0.0.2,,,,,,,,,,,,,,,,,,,,,,,,,11970,0,40938,0,0,0,-40938,11970
1629977133141,50,0,,,0,,0,,0,,0,,0,,,,,ea253716-a989-4714-98e6-6201a683b3ea,0,Receipt,123,a4c21fc1-28df-494b-8983-baf3c6b027d7,Exp-2,NON_SCHEME,1617215400001,pb,Punjab,b57a7b47-1546-4cd5-813b-a3f88469e308,PR3,,a4c21fc1-28df-494b-8983-baf3c6b027d7,3d9ef18a-361a-40cf-b142-dd6f998e1ac5,Project3,167fe9a2-d4a3-47e2-a211-1a30def5622c,pb,1648751399001,0.0.2,,,,,,,,,,,,,,,,,,,,,,,,,11970,0,40938,0,0,0,-40938,11970
1629977133141,100,0,,,0,,0,,0,,0,,0,,,,,ea253716-a989-4714-98e6-6201a683b3ea,0,Receipt,123,a4c21fc1-28df-494b-8983-baf3c6b027d7,Exp-2,NON_SCHEME,1617215400001,pb,Punjab,56806440-6f5e-49af-83f3-80d1717694ed,PR3,,a4c21fc1-28df-494b-8983-baf3c6b027d7,3d9ef18a-361a-40cf-b142-dd6f998e1ac5,Project3,167fe9a2-d4a3-47e2-a211-1a30def5622c,pb,1648751399001,0.0.2,,,,,,,,,,,,,,,,,,,,,,,,,11970,0,40938,0,0,0,-40938,11970
1629977133141,200,0,,,0,,0,,0,,0,,0,,,,,ea253716-a989-4714-98e6-6201a683b3ea,0,Receipt,123,a4c21fc1-28df-494b-8983-baf3c6b027d7,Exp-2,NON_SCHEME,1617215400001,pb,Punjab,84978391-ac55-46db-a0cc-344941680f3e,PR3,,a4c21fc1-28df-494b-8983-baf3c6b027d7,3d9ef18a-361a-40cf-b142-dd6f998e1ac5,Project3,167fe9a2-d4a3-47e2-a211-1a30def5622c,pb,1648751399001,0.0.2,,,,,,,,,,,,,,,,,,,,,,,,,11970,0,40938,0,0,0,-40938,11970
1629977133141,500,0,,,0,,0,,0,,0,,0,,,,,ea253716-a989-4714-98e6-6201a683b3ea,0,Receipt,123,a4c21fc1-28df-494b-8983-baf3c6b027d7,Exp-2,NON_SCHEME,1617215400000,pb,Punjab,21774084-513d-4d8e-90f8-5cb2520bdf1d,PR3,,a4c21fc1-28df-494b-8983-baf3c6b027d7,3d9ef18a-361a-40cf-b142-dd6f998e1ac5,Project3,167fe9a2-d4a3-47e2-a211-1a30def5622c,pb,1648751399000,0.0.2,,,,,,,,,,,,,,,,,,,,,,,,,11970,0,40938,0,0,0,-40938,11970
1629977159681,-50,0,,,0,,0,,0,,0,,0,,,,,48bff8e3-4efb-45bd-ac2b-6f63512d89c0,0,Receipt,123,a4c21fc1-28df-494b-8983-baf3c6b027d7,Exp-2,NON_SCHEME,1617215400000,pb,Punjab,9a9e40d9-f2a2-411e-a9d7-96cb1cc8dccc,PR3,,a4c21fc1-28df-494b-8983-baf3c6b027d7,3d9ef18a-361a-40cf-b142-dd6f998e1ac5,Project3,167fe9a2-d4a3-47e2-a211-1a30def5622c,pb,1648751399000,0.0.2,,,,,,,,,,,,,,,,,,,,,,,,,11970,0,40938,0,0,0,-40938,11970
1629977159681,-50,0,,,0,,0,,0,,0,,0,,,,,48bff8e3-4efb-45bd-ac2b-6f63512d89c0,0,Receipt,123,a4c21fc1-28df-494b-8983-baf3c6b027d7,Exp-2,NON_SCHEME,1617215400001,pb,Punjab,6fdb0607-01df-455f-b42b-468ba5697ea4,PR3,,a4c21fc1-28df-494b-8983-baf3c6b027d7,3d9ef18a-361a-40cf-b142-dd6f998e1ac5,Project3,167fe9a2-d4a3-47e2-a211-1a30def5622c,pb,1648751399001,0.0.2,,,,,,,,,,,,,,,,,,,,,,,,,11970,0,40938,0,0,0,-40938,11970
1629977159681,0,0,,,0,,0,,0,,0,,0,,,,,48bff8e3-4efb-45bd-ac2b-6f63512d89c0,0,Receipt,123,a4c21fc1-28df-494b-8983-baf3c6b027d7,Exp-2,NON_SCHEME,1617215400000,pb,Punjab,402b7630-dc05-472f-b32a-9a8e4b5e3c67,PR3,,a4c21fc1-28df-494b-8983-baf3c6b027d7,3d9ef18a-361a-40cf-b142-dd6f998e1ac5,Project3,167fe9a2-d4a3-47e2-a211-1a30def5622c,pb,1648751399000,0.0.2,,,,,,,,,,,,,,,,,,,,,,,,,11970,0,40938,0,0,0,-40938,11970
1629977159681,0,0,,,0,,0,,0,,0,,0,,,,,48bff8e3-4efb-45bd-ac2b-6f63512d89c0,0,Receipt,123,a4c21fc1-28df-494b-8983-baf3c6b027d7,Exp-2,NON_SCHEME,1617215400000,pb,Punjab,76426c53-df91-4e9d-b63c-449bce90c328,PR3,,a4c21fc1-28df-494b-8983-baf3c6b027d7,3d9ef18a-361a-40cf-b142-dd6f998e1ac5,Project3,167fe9a2-d4a3-47e2-a211-1a30def5622c,pb,1648751399000,0.0.2,,,,,,,,,,,,,,,,,,,,,,,,,11970,0,40938,0,0,0,-40938,11970
1629977159681,0,0,,,0,,0,,0,,0,,0,,,,,48bff8e3-4efb-45bd-ac2b-6f63512d89c0,0,Receipt,123,a4c21fc1-28df-494b-8983-baf3c6b027d7,Exp-2,NON_SCHEME,1617215400000,pb,Punjab,bf8e1d68-9b32-4991-ad51-0eac3a6b779b,PR3,,a4c21fc1-28df-494b-8983-baf3c6b027d7,3d9ef18a-361a-40cf-b142-dd6f998e1ac5,Project3,167fe9a2-d4a3-47e2-a211-1a30def5622c,pb,1648751399000,0.0.2,,,,,,,,,,,,,,,,,,,,,,,,,11970,0,40938,0,0,0,-40938,11970
1629977159681,0,0,,,0,,0,,0,,0,,0,,,,,48bff8e3-4efb-45bd-ac2b-6f63512d89c0,0,Receipt,123,a4c21fc1-28df-494b-8983-baf3c6b027d7,Exp-2,NON_SCHEME,1617215400000,pb,Punjab,c6aa3668-f449-495c-b9a0-a679021d9812,PR3,,a4c21fc1-28df-494b-8983-baf3c6b027d7,3d9ef18a-361a-40cf-b142-dd6f998e1ac5,Project3,167fe9a2-d4a3-47e2-a211-1a30def5622c,pb,1648751399000,0.0.2,,,,,,,,,,,,,,,,,,,,,,,,,11970,0,40938,0,0,0,-40938,11970
1629977159681,0,0,,,0,,0,,0,,0,,0,,,,,48bff8e3-4efb-45bd-ac2b-6f63512d89c0,0,Receipt,123,a4c21fc1-28df-494b-8983-baf3c6b027d7,Exp-2,NON_SCHEME,1617215400000,pb,Punjab,e2251160-64e4-41cd-bf4d-3082727db081,PR3,,a4c21fc1-28df-494b-8983-baf3c6b027d7,3d9ef18a-361a-40cf-b142-dd6f998e1ac5,Project3,167fe9a2-d4a3-47e2-a211-1a30def5622c,pb,1648751399000,0.0.2,,,,,,,,,,,,,,,,,,,,,,,,,11970,0,40938,0,0,0,-40938,11970
1629977159681,0,0,,,0,,0,,0,,0,,0,,,,,48bff8e3-4efb-45bd-ac2b-6f63512d89c0,0,Receipt,123,a4c21fc1-28df-494b-8983-baf3c6b027d7,Exp-2,NON_SCHEME,1617215400001,pb,Punjab,7fbcbcde-c5df-43f2-9502-56b02f8ae2f2,PR3,,a4c21fc1-28df-494b-8983-baf3c6b027d7,3d9ef18a-361a-40cf-b142-dd6f998e1ac5,Project3,167fe9a2-d4a3-47e2-a211-1a30def5622c,pb,1648751399001,0.0.2,,,,,,,,,,,,,,,,,,,,,,,,,11970,0,40938,0,0,0,-40938,11970
